Time,Pitch,Roll,Yaw,xGyro,yGyro,ZGyro,xAcc,yAcc,zAcc,latitude,longitude,alt,xSpeed,ySpeed,zSpeed,cP,cR,cY,cPower,PosXError,PosYError
91175301.0000000000,-1.7500000000,0.3745000000,0.0625000000,0.2500000000,-0.2500000000,0.4375000000,0.0200000000,-0.0600000000,-0.1500000000,47.2228969000,8.8183875000,0.5300000000,0.0000000000,0.0000000000,0.0000000000,2.7000000000,-0.1245000000,-0.5000000000,-4.2000000000,-0.3713910548,0.1145307744
91494075.0000000000,-1.8125000000,0.3745000000,0.0625000000,0.1250000000,-0.1250000000,-0.6875000000,-0.2000000000,-0.0900000000,-0.3000000000,47.2228969000,8.8183875000,0.5200000000,0.0000000000,0.0000000000,0.0000000000,3.1824474767,0.0940923232,0.6250000000,-3.6000000000,-0.3713910548,0.1145307744
91504921.0000000000,-1.8125000000,0.3745000000,0.0625000000,-0.1250000000,-0.0000000000,-0.1875000000,-0.0700000000,-0.2300000000,-0.1600000000,47.2228969000,8.8183875000,0.5100000000,-0.0007784717,-0.0021024103,-0.0911075887,2.9324474767,-0.0309076768,0.1250000000,-2.0889241130,-0.3713910548,0.1145307744
91512925.0000000000,-1.8125000000,0.3745000000,0.0625000000,-0.1250000000,-0.0000000000,-0.1875000000,-0.2000000000,-0.3300000000,-0.2200000000,47.2228969000,8.8183875000,0.4900000000,-0.0023752888,-0.0044252936,-0.3314980255,2.9335373370,-0.0330100872,0.1250000000,1.5149802546,-0.3713910548,0.1145307744
91526544.0000000000,-1.8125000000,0.3745000000,0.0625000000,-0.3125000000,0.1250000000,0.5625000000,-0.4900000000,-0.0700000000,-0.2500000000,47.2228969000,8.8183875000,0.5100000000,-0.0089918199,-0.0048637253,-0.1512261321,2.7482728810,-0.1603329704,-0.6250000000,-1.4877386790,-0.3713910548,0.1145307744
91538038.0000000000,-1.8750000000,0.3120000000,0.0625000000,-0.3125000000,-0.0000000000,-0.2500000000,-0.3100000000,-0.0800000000,-0.2700000000,47.2228969000,8.8183875000,0.5100000000,-0.0124578579,-0.0053362490,-0.1360838641,2.8450360245,0.0267285979,0.1875000000,-1.6391613585,-0.3713910548,0.1145307744
91546073.0000000000,-1.8750000000,0.3120000000,0.0625000000,-0.0625000000,-0.1250000000,-0.6875000000,-0.3500000000,-0.0300000000,-0.1900000000,47.2228969000,8.8183875000,0.5100000000,-0.0151372935,-0.0052494769,-0.1218832179,3.0998884778,0.1512560742,0.6250000000,-1.7811678212,-0.3713910548,0.1145307744
91554076.0000000000,-1.8750000000,0.3120000000,0.0625000000,0.0000000000,-0.1250000000,-0.4375000000,-0.8200000000,0.1500000000,-0.3000000000,47.2228969000,8.8183875000,0.5100000000,-0.0215025634,-0.0037375711,-0.1098972920,3.1661396875,0.1513428462,0.3750000000,-1.9010270804,-0.3713910548,0.1145307744
91566717.0000000000,-1.8750000000,0.3120000000,0.0625000000,0.4375000000,-0.1250000000,0.2500000000,-0.7000000000,-0.1900000000,-0.2500000000,47.2228969000,8.8183875000,0.5300000000,-0.0300790372,-0.0056499685,0.0595569224,3.6125510654,0.1528547521,-0.3125000000,-4.7955692241,-0.3713910548,0.1145307744
91577367.0000000000,-1.8750000000,0.3120000000,0.0625000000,0.0625000000,-0.1250000000,0.3750000000,-0.1900000000,0.3500000000,-0.3300000000,47.2228969000,8.8183875000,0.5300000000,-0.0318078706,-0.0015426561,0.0530443417,3.2495581287,0.1509423547,-0.4375000000,-4.7304434167,-0.3713910548,0.1145307744
91585372.0000000000,-1.8750000000,0.3120000000,0.0625000000,-0.1875000000,-0.0000000000,0.0000000000,0.5100000000,0.0200000000,-0.2200000000,47.2228969000,8.8183875000,0.5200000000,-0.0274678797,-0.0010976973,-0.0768081027,3.0019784955,0.0300496671,-0.0625000000,-2.8319189725,-0.3713910548,0.1145307744
91595252.0000000000,-1.8750000000,0.3120000000,0.0625000000,0.0000000000,0.2500000000,-0.3750000000,-0.2200000000,0.1900000000,-0.3100000000,47.2228969000,8.8183875000,0.5200000000,-0.0293695179,0.0011062247,-0.0694660777,3.1834025083,-0.2195053741,0.3125000000,-2.9053392233,-0.3713910548,0.1145307744
91603257.0000000000,-1.8750000000,0.3120000000,0.0625000000,0.0000000000,0.2500000000,-0.3750000000,-0.4400000000,-0.0200000000,-0.3300000000,47.2228969000,8.8183875000,0.5100000000,-0.0325826131,0.0012076968,-0.1878599752,3.1860648018,-0.2173014521,0.3125000000,-1.1214002485,-0.3713910548,0.1145307744
91613954.0000000000,-1.8750000000,0.3120000000,0.0625000000,0.1250000000,0.2500000000,-0.2500000000,-0.2600000000,-0.0100000000,-0.3500000000,47.2228969000,8.8183875000,0.5300000000,-0.0350366699,0.0014518985,0.0171424391,3.3155631351,-0.2171999800,0.1875000000,-4.3714243910,-0.3713910548,0.1145307744
91622619.0000000000,-1.8750000000,0.3120000000,0.0625000000,0.1250000000,0.1875000000,0.3750000000,-0.2600000000,-0.0100000000,-0.3500000000,47.2228969000,8.8183875000,0.5400000000,-0.0369381201,0.0016449756,0.1302259413,3.3189988145,-0.1544557783,-0.4375000000,-6.1022594135,-0.3713910548,0.1145307744
91632488.0000000000,-1.8750000000,0.3120000000,0.0625000000,0.0000000000,0.1875000000,0.3125000000,0.0200000000,-0.1900000000,-0.2000000000,47.2228969000,8.8183875000,0.5200000000,-0.0363977584,0.0001063116,-0.0848128074,3.1966608448,-0.1542627012,-0.3750000000,-2.7518719261,-0.3713910548,0.1145307744
91641691.0000000000,-1.8750000000,0.3120000000,0.0625000000,-0.2500000000,-0.0000000000,-0.1875000000,-0.0200000000,-0.3600000000,-0.2900000000,47.2228969000,8.8183875000,0.5100000000,-0.0362387777,-0.0028631056,-0.1851416630,2.9459043385,0.0316986348,0.1250000000,-1.1485833699,-0.3713910548,0.1145307744
91651788.0000000000,-1.8750000000,0.3120000000,0.0625000000,-0.2500000000,0.0625000000,-0.4375000000,0.2300000000,-0.1900000000,-0.0100000000,47.2228969000,8.8183875000,0.5200000000,-0.0336022931,-0.0043918560,-0.0652082142,2.9456817654,-0.0337707824,0.3750000000,-2.9479178577,-0.3713910548,0.1145307744
91664950.0000000000,-1.8750000000,0.3120000000,0.0625000000,0.3750000000,0.0625000000,0.0625000000,-0.0500000000,-0.3200000000,-0.2100000000,47.2228969000,8.8183875000,0.5100000000,-0.0339503651,-0.0080720200,-0.1339304332,3.5669906870,-0.0352995328,-0.1250000000,-1.6606956682,-0.3713910548,0.1145307744
91673397.0000000000,-1.8750000000,0.3120000000,0.0625000000,0.3750000000,0.0625000000,0.0625000000,-0.0500000000,-0.3200000000,-0.2100000000,47.2228969000,8.8183875000,0.5200000000,-0.0340498943,-0.0103813109,-0.0016815820,3.5674779878,-0.0389796968,-0.1250000000,-3.5831841803,-0.3713910548,0.1145307744
91685160.0000000000,-1.8750000000,0.3120000000,0.0625000000,0.3125000000,-0.0625000000,0.0625000000,0.0600000000,0.0100000000,-0.1700000000,47.2228969000,8.8183875000,0.5300000000,-0.0330397866,-0.0097627724,0.0845776877,3.5051173286,0.0837110123,-0.1250000000,-5.0457768774,-0.3713910548,0.1145307744
91693451.0000000000,-1.8750000000,0.3120000000,0.0625000000,0.3125000000,-0.0625000000,0.0625000000,-0.2600000000,0.1100000000,-0.4500000000,47.2228969000,8.8183875000,0.5300000000,-0.0348640123,-0.0084815381,0.0747909546,3.5037031778,0.0843295507,-0.1250000000,-4.9479095458,-0.3713910548,0.1145307744
91703358.0000000000,-1.8750000000,0.3120000000,0.0625000000,-0.3750000000,-0.5000000000,-0.0625000000,-0.1800000000,0.0300000000,-0.2300000000,47.2228969000,8.8183875000,0.5300000000,-0.0363053194,-0.0077670536,0.0676854521,2.8187570939,0.5231107850,0.0000000000,-4.8768545209,-0.3713910548,0.1145307744
91712428.0000000000,-1.8750000000,0.3745000000,0.0625000000,-0.1250000000,-0.3125000000,-0.0625000000,-0.1800000000,0.0300000000,-0.2300000000,47.2228969000,8.8183875000,0.5400000000,-0.0375809885,-0.0071129121,0.1715125198,3.0707749238,0.2738252695,0.0000000000,-6.5151251982,-0.3713910548,0.1145307744
91724127.0000000000,-1.8750000000,0.3745000000,0.0625000000,-0.3125000000,-0.0625000000,0.0000000000,0.1700000000,-0.1000000000,-0.1300000000,47.2228969000,8.8183875000,0.5200000000,-0.0352651919,-0.0078038792,-0.0150994353,2.8850608605,0.0244794111,-0.0625000000,-3.4490056467,-0.3713910548,0.1145307744
91732896.0000000000,-1.8750000000,0.3745000000,0.0625000000,-0.3125000000,0.1875000000,0.1250000000,0.1700000000,-0.1000000000,-0.1300000000,47.2228969000,8.8183875000,0.4900000000,-0.0334584206,-0.0082970706,-0.3545838690,2.8818187453,-0.2262115560,-0.1875000000,1.7458386897,-0.3713910548,0.1145307744
91746904.0000000000,-1.8750000000,0.3745000000,0.0625000000,0.2500000000,-0.1875000000,-0.0625000000,0.0600000000,-0.0000000000,-0.3100000000,47.2228969000,8.8183875000,0.5200000000,-0.0323264310,-0.0077398170,-0.1054424812,3.4417892655,0.1482952526,0.0000000000,-2.5455751884,-0.3713910548,0.1145307744
91758931.0000000000,-1.8750000000,0.3745000000,0.0625000000,0.3750000000,-0.1250000000,0.1875000000,0.1000000000,0.0300000000,-0.2800000000,47.2228969000,8.8183875000,0.5300000000,-0.0308422605,-0.0068980068,-0.0118396556,3.5652044800,0.0863525062,-0.2500000000,-4.0816034439,-0.3713910548,0.1145307744
91770180.0000000000,-1.8750000000,0.3745000000,0.0625000000,0.0625000000,-0.0625000000,0.0000000000,-0.2700000000,-0.3600000000,-0.1300000000,47.2228969000,8.8183875000,0.5200000000,-0.0335685368,-0.0104573017,-0.0981158711,3.2506266413,0.0246943164,-0.0625000000,-2.6188412892,-0.3713910548,0.1145307744
91778183.0000000000,-1.8750000000,0.3745000000,0.0625000000,0.1250000000,-0.0000000000,-0.1875000000,0.0500000000,0.2300000000,-0.3300000000,47.2228969000,8.8183875000,0.5200000000,-0.0328565104,-0.0082594800,-0.0887227608,3.3169434282,-0.0413649785,0.1250000000,-2.7127723915,-0.3713910548,0.1145307744
91788866.0000000000,-1.8750000000,0.3745000000,0.0625000000,0.2500000000,0.1250000000,-0.0625000000,-0.3500000000,0.0200000000,-0.1900000000,47.2228969000,8.8183875000,0.5200000000,-0.0362560452,-0.0076036568,-0.0790630408,3.4409465912,-0.1641671568,0.0000000000,-2.8093695917,-0.3713910548,0.1145307744
91796869.0000000000,-1.8750000000,0.3745000000,0.0625000000,0.0625000000,0.1875000000,0.1250000000,0.1400000000,-0.1900000000,-0.3300000000,47.2228969000,8.8183875000,0.5300000000,-0.0348040764,-0.0087620189,0.0533779290,3.2582059400,-0.2260113336,-0.1875000000,-4.7337792895,-0.3713910548,0.1145307744
91808738.0000000000,-1.8750000000,0.3745000000,0.0625000000,-0.1875000000,-0.1250000000,0.2500000000,0.6300000000,-0.1900000000,-0.3300000000,47.2228969000,8.8183875000,0.5200000000,-0.0270827161,-0.0105050970,-0.0368335903,3.0061731836,0.0853303042,-0.3125000000,-3.2316640975,-0.3713910548,0.1145307744
91816742.0000000000,-1.8750000000,0.3745000000,0.0625000000,-0.1250000000,0.3125000000,0.5000000000,-0.4600000000,0.5100000000,-0.5300000000,47.2228969000,8.8183875000,0.5100000000,-0.0304767204,-0.0060878270,-0.1599470116,3.0578632792,-0.3539127739,-0.5625000000,-1.4005298838,-0.3713910548,0.1145307744
91829232.0000000000,-1.8750000000,0.3745000000,0.0625000000,-0.1250000000,0.1250000000,-0.0625000000,-0.4800000000,0.3400000000,-0.2500000000,47.2228969000,8.8183875000,0.5200000000,-0.0361381140,-0.0013999283,-0.0636420813,3.0626148853,-0.1619955039,0.0000000000,-2.9635791868,-0.3713910548,0.1145307744
91840916.0000000000,-1.8750000000,0.3745000000,0.0625000000,0.0625000000,-0.3125000000,-0.3750000000,-0.5200000000,0.4300000000,-0.2400000000,47.2228969000,8.8183875000,0.5100000000,-0.0418205740,0.0039835466,-0.1425295532,3.2580408363,0.2801923948,0.3125000000,-1.5747044676,-0.3713910548,0.1145307744
91850588.0000000000,-1.8750000000,0.3120000000,0.0625000000,-0.5000000000,-0.6250000000,-0.3125000000,-0.4300000000,-0.3300000000,-0.0200000000,47.2228969000,8.8183875000,0.5100000000,-0.0455436768,0.0011113433,-0.1260838588,2.7034962802,0.6605758698,0.2500000000,-1.7391614120,-0.3713910548,0.1145307744
91864380.0000000000,-1.8750000000,0.3120000000,0.0625000000,-0.1875000000,-0.0625000000,0.5000000000,-0.7800000000,-0.2800000000,0.0400000000,47.2228969000,8.8183875000,0.5200000000,-0.0557725576,-0.0022559430,-0.0370981201,3.0212086242,0.0952036665,-0.5625000000,-3.2290187986,-0.3713910548,0.1145307744
91878034.0000000000,-1.8750000000,0.3120000000,0.0625000000,-0.8125000000,0.1250000000,0.0625000000,-1.0400000000,0.2600000000,-0.1900000000,47.2228969000,8.8183875000,0.5200000000,-0.0693067841,0.0017434532,-0.0323818718,2.4105290574,-0.0956636198,-0.1250000000,-3.2761812822,-0.3713910548,0.1145307744
91886036.0000000000,-1.8750000000,0.3120000000,0.0625000000,-0.3750000000,0.1875000000,-0.0625000000,-0.7800000000,0.5000000000,-0.0400000000,47.2228969000,8.8183875000,0.5500000000,-0.0748126656,0.0059579404,0.3474326862,2.8669769744,-0.1541642236,0.0000000000,-8.8743268625,-0.3713910548,0.1145307744
91894304.0000000000,-1.8750000000,0.3120000000,0.0625000000,-0.3750000000,0.1875000000,-0.0625000000,-1.2900000000,1.0800000000,-0.1900000000,47.2228969000,8.8183875000,0.5200000000,-0.0846440651,0.0150184445,-0.0495458506,2.8746852085,-0.1499497365,0.0000000000,-3.1045414944,-0.3713910548,0.1145307744
91908160.0000000000,-1.8750000000,0.3120000000,0.0625000000,-0.2500000000,-0.2500000000,-0.0625000000,-1.0500000000,1.0000000000,-0.2500000000,47.2228969000,8.8183875000,0.5200000000,-0.0982352300,0.0290548365,-0.0443181637,3.0134491678,0.2966107677,0.0000000000,-2.5568183625,-0.3713910548,0.1145307744
91919816.0000000000,-1.8750000000,0.3120000000,0.0625000000,0.2500000000,-0.4375000000,0.3125000000,1.5100000000,-0.2100000000,-0.7700000000,47.2228969000,8.8183875000,0.5100000000,-0.0798571719,0.0267356546,-0.1309043404,3.5324767987,0.4981471597,-0.3750000000,-1.0909565961,-0.3713910548,0.1145307744
91927820.0000000000,-1.8750000000,0.3120000000,0.0625000000,-0.1250000000,-0.3125000000,0.3750000000,1.3500000000,-1.2800000000,-0.3300000000,47.2228969000,8.8183875000,0.5100000000,-0.0683810641,0.0165966287,-0.1182324355,3.1317475174,0.3708279778,-0.4375000000,-1.2176756449,-0.3713910548,0.1145307744
91935822.0000000000,-1.8750000000,0.3120000000,0.0625000000,-0.1250000000,-0.3125000000,0.3750000000,-0.0200000000,-1.0600000000,0.0100000000,47.2228969000,8.8183875000,0.5300000000,-0.0678754980,0.0083042953,0.1455585111,3.1156809664,0.3606889519,-0.4375000000,-5.0555851108,-0.3713910548,0.1145307744
91948761.0000000000,-1.8750000000,0.3120000000,0.0625000000,-0.3750000000,-0.0000000000,0.0625000000,-1.8700000000,0.6400000000,0.1600000000,47.2228969000,8.8183875000,0.5300000000,-0.0911827378,0.0168574914,0.1360321787,2.8649731739,0.0398966185,-0.1250000000,-4.9603217866,-0.3713910548,0.1145307744
91956765.0000000000,-1.8750000000,0.3120000000,0.0625000000,-0.2500000000,0.5625000000,0.1250000000,1.6300000000,-0.4200000000,-0.8300000000,47.2228969000,8.8183875000,0.5300000000,-0.0773746655,0.0136318527,0.1184086316,3.0226033095,-0.5140501854,-0.1875000000,-4.7840863164,-0.3713910548,0.1145307744
91965052.0000000000,-1.8750000000,0.3120000000,0.0625000000,-0.2500000000,0.5625000000,0.1250000000,2.1400000000,-1.2400000000,-0.4200000000,47.2228969000,8.8183875000,0.5500000000,-0.0590645909,0.0036029943,0.3468050550,3.0032720083,-0.5172758241,-0.1875000000,-8.2680505499,-0.3713910548,0.1145307744
91978062.0000000000,-1.8750000000,0.3120000000,0.0625000000,0.1875000000,0.3750000000,0.0625000000,-2.0500000000,1.3300000000,0.1400000000,47.2228969000,8.8183875000,0.5300000000,-0.0849099398,0.0211377239,0.1632195850,3.4151379040,-0.3398046826,-0.1250000000,-5.2321958498,-0.3713910548,0.1145307744
91986064.0000000000,-1.8750000000,0.3120000000,0.0625000000,0.1875000000,0.3750000000,0.0625000000,-0.8700000000,0.7800000000,-0.3600000000,47.2228969000,8.8183875000,0.5300000000,-0.0909727679,0.0273764228,0.1462631479,3.4513213924,-0.3222699529,-0.1250000000,-5.0626314790,-0.3713910548,0.1145307744
91999331.0000000000,-1.8750000000,0.3120000000,0.0625000000,-0.1875000000,-0.3750000000,0.0625000000,-1.9300000000,0.4900000000,0.4200000000,47.2228969000,8.8183875000,0.5200000000,-0.1154451330,0.0339876743,0.0645233361,3.0848093518,0.4339687459,-0.1250000000,-3.6452333610,-0.3713910548,0.1145307744
92010635.0000000000,-1.8750000000,0.3120000000,0.0625000000,-0.1875000000,-0.4375000000,0.1875000000,-0.0300000000,0.2600000000,-0.3200000000,47.2228969000,8.8183875000,0.5000000000,-0.1146543879,0.0369401780,-0.1193468685,3.1190706628,0.5030799975,-0.2500000000,-0.6065313145,-0.3713910548,0.1145307744
92022666.0000000000,-1.8750000000,0.3120000000,0.0625000000,0.0000000000,0.1875000000,0.1875000000,1.5100000000,-1.3500000000,-0.6300000000,47.2228969000,8.8183875000,0.5300000000,-0.0955524788,0.0208986903,0.1380661781,3.3054636197,-0.1189674988,-0.2500000000,-4.9806617809,-0.3713910548,0.1145307744
92030670.0000000000,-1.8750000000,0.3120000000,0.0625000000,-0.6250000000,0.1250000000,0.5000000000,-2.2400000000,1.4100000000,0.5900000000,47.2228969000,8.8183875000,0.5100000000,-0.1123664343,0.0321334865,-0.1194067193,2.6537209470,-0.0725089865,-0.5625000000,-1.2059328065,-0.3713910548,0.1145307744
92042743.0000000000,-1.8750000000,0.3120000000,0.0625000000,-0.7500000000,0.3125000000,0.3750000000,-2.1100000000,1.5300000000,0.3200000000,47.2228969000,8.8183875000,0.5300000000,-0.1364919403,0.0505078923,0.0646242687,2.5522604847,-0.2487741904,-0.4375000000,-4.2462426872,-0.3713910548,0.1145307744
92057584.0000000000,-1.8750000000,0.3120000000,0.0625000000,-0.1250000000,-0.0000000000,0.0625000000,-2.0000000000,1.3700000000,0.2400000000,47.2228969000,8.8183875000,0.5300000000,-0.1645489324,0.0706341483,0.0649992390,3.2110361931,0.0821002155,-0.1250000000,-4.2499923896,-0.3713910548,0.1145307744
92069450.0000000000,-1.8750000000,0.3120000000,0.0625000000,-0.5625000000,-0.2500000000,-0.1250000000,2.1100000000,-1.1600000000,-1.0500000000,47.2228969000,8.8183875000,0.5200000000,-0.1381459240,0.0567026514,-0.0340847235,2.8128159820,0.3522264715,0.0625000000,-2.6591527649,-0.3713910548,0.1145307744
92077453.0000000000,-1.8750000000,0.3120000000,0.0625000000,-0.1875000000,-0.5000000000,-0.1250000000,2.3200000000,-1.9200000000,-1.0800000000,47.2228969000,8.8183875000,0.5300000000,-0.1184029818,0.0411944881,0.0884563895,3.1508517703,0.5882949746,0.0625000000,-4.4845638954,-0.3713910548,0.1145307744
92089929.0000000000,-1.8750000000,0.3120000000,0.0625000000,-0.4375000000,0.1250000000,-0.2500000000,-2.0800000000,1.5200000000,0.7300000000,47.2228969000,8.8183875000,0.5400000000,-0.1429404093,0.0599788404,0.1710143800,2.8732116512,-0.0522131887,0.1875000000,-5.9101438002,-0.3713910548,0.1145307744
92099464.0000000000,-1.8750000000,0.3120000000,0.0625000000,-1.0000000000,0.0625000000,0.0000000000,0.6800000000,-1.1000000000,-1.1000000000,47.2228969000,8.8183875000,0.5300000000,-0.1351156423,0.0493182730,0.0419298321,2.3450640497,0.0290711636,-0.0625000000,-4.0192983208,-0.3713910548,0.1145307744
92107467.0000000000,-1.8750000000,0.3120000000,0.0625000000,-0.1250000000,-0.1875000000,0.0625000000,0.9700000000,-0.0500000000,0.2400000000,47.2228969000,8.8183875000,0.5300000000,-0.1260990124,0.0486999074,0.0414239110,3.2091093759,0.2684105962,-0.1250000000,-4.0142391100,-0.3713910548,0.1145307744
92116084.0000000000,-1.8750000000,0.3120000000,0.0625000000,-0.1250000000,-0.1875000000,0.0625000000,0.8600000000,-1.1600000000,-1.0600000000,47.2228969000,8.8183875000,0.5100000000,-0.1175228356,0.0386088999,-0.2009297705,3.1964860941,0.2677922306,-0.1250000000,-0.3907022945,-0.3713910548,0.1145307744
92125176.0000000000,-1.8750000000,0.3120000000,0.0625000000,0.1875000000,-0.0000000000,0.1250000000,0.8600000000,-1.1600000000,-1.0600000000,47.2228969000,8.8183875000,0.5100000000,-0.1086291811,0.0280893950,-0.1872856582,3.4969794465,0.0702012231,-0.1875000000,-0.5271434183,-0.3713910548,0.1145307744
92134319.0000000000,-1.8750000000,0.3120000000,0.0625000000,-0.5625000000,0.0625000000,0.6250000000,1.1500000000,-0.3000000000,0.5700000000,47.2228969000,8.8183875000,0.5200000000,-0.0971562128,0.0254025938,-0.0522560588,2.7345283303,-0.0028182818,-0.6875000000,-2.4774394122,-0.3713910548,0.1145307744
92144384.0000000000,-1.8750000000,0.3120000000,0.0625000000,-0.4375000000,-0.4375000000,0.5625000000,-1.9500000000,1.5800000000,-0.2200000000,47.2228969000,8.8183875000,0.5400000000,-0.1156400440,0.0412330216,0.1521480787,2.8434661745,0.4944949170,-0.6250000000,-5.7214807867,-0.3713910548,0.1145307744
92154426.0000000000,-1.8750000000,0.3120000000,0.0625000000,0.0000000000,-0.1250000000,0.5625000000,0.0100000000,-0.4700000000,-0.8600000000,47.2228969000,8.8183875000,0.5300000000,-0.1144090817,0.0364881508,0.0320363840,3.3068435383,0.1978253448,-0.6250000000,-3.9203638401,-0.3713910548,0.1145307744
92164481.0000000000,-1.8750000000,0.3120000000,0.0625000000,0.3750000000,-0.1875000000,0.4375000000,0.4500000000,-0.1000000000,0.2900000000,47.2228969000,8.8183875000,0.5100000000,-0.1088103745,0.0354682665,-0.1649883573,3.6801201911,0.2555804740,-0.5000000000,-0.7501164275,-0.3713910548,0.1145307744
92174790.0000000000,-1.8750000000,0.3120000000,0.0625000000,0.6875000000,0.0625000000,0.1875000000,-1.0500000000,0.6000000000,-0.4000000000,47.2228969000,8.8183875000,0.5500000000,-0.1184639910,0.0415861720,0.2383324301,3.9847820010,0.0045605897,-0.2500000000,-6.5833243015,-0.3713910548,0.1145307744
92183032.0000000000,-1.8750000000,0.3120000000,0.0625000000,0.1250000000,0.0625000000,0.1875000000,-0.5700000000,0.7500000000,-0.9300000000,47.2228969000,8.8183875000,0.5200000000,-0.1219507107,0.0475690529,-0.1543717900,3.4357970641,0.0106784951,-0.2500000000,-0.8562820997,-0.3713910548,0.1145307744
92197792.0000000000,-1.8750000000,0.3120000000,0.0625000000,-0.3125000000,0.1250000000,0.1875000000,0.2900000000,-0.5300000000,0.0100000000,47.2228969000,8.8183875000,0.5200000000,-0.1165301386,0.0398485344,-0.1351898514,3.0031784716,-0.0458386239,-0.2500000000,-1.0481014857,-0.3713910548,0.1145307744
92210439.0000000000,-1.8750000000,0.3120000000,0.0625000000,-0.3125000000,-0.3750000000,-0.1875000000,0.9400000000,-0.4000000000,0.0400000000,47.2228969000,8.8183875000,0.5100000000,-0.1036268403,0.0348700392,-0.1971908621,2.9955896707,0.4464408576,0.1250000000,0.1719086212,-0.3713910548,0.1145307744
92221963.0000000000,-1.8750000000,0.3120000000,0.0625000000,0.0625000000,-0.0000000000,-0.0625000000,-0.7000000000,0.1700000000,-0.3000000000,47.2228969000,8.8183875000,0.5100000000,-0.1106052258,0.0368510076,-0.1777632179,3.3525250531,0.0664623624,0.0000000000,-0.0223678213,-0.3713910548,0.1145307744
92229967.0000000000,-1.8750000000,0.3120000000,0.0625000000,-0.0625000000,-0.1875000000,-0.0625000000,0.3400000000,0.2700000000,-0.4400000000,47.2228969000,8.8183875000,0.5400000000,-0.1068248371,0.0388929662,0.2136147725,3.2372947928,0.2559433308,0.0000000000,-5.7361477246,-0.3713910548,0.1145307744
92237971.0000000000,-1.8750000000,0.3120000000,0.0625000000,-0.3750000000,0.1250000000,0.0000000000,0.8100000000,-0.0400000000,-0.3000000000,47.2228969000,8.8183875000,0.5200000000,-0.0993579910,0.0384580775,-0.0578241884,2.9195022485,-0.0545147106,-0.0625000000,-1.8217581158,-0.3713910548,0.1145307744
92246682.0000000000,-1.8750000000,0.3120000000,0.0625000000,-0.3750000000,0.1250000000,0.0000000000,0.3100000000,0.0400000000,-0.2100000000,47.2228969000,8.8183875000,0.5400000000,-0.0957125649,0.0387133894,0.1780382855,2.9090486640,-0.0549495993,-0.0625000000,-5.3803828548,-0.3713910548,0.1145307744
92255678.0000000000,-1.8750000000,0.3120000000,0.0625000000,-0.1250000000,0.1875000000,0.0000000000,0.3100000000,0.0400000000,-0.2100000000,47.2228969000,8.8183875000,0.5300000000,-0.0920168320,0.0389870837,0.0495751083,3.1539450675,-0.1171942874,-0.0625000000,-3.4957510830,-0.3713910548,0.1145307744
92269692.0000000000,-1.8750000000,0.3120000000,0.0625000000,0.1875000000,-0.1250000000,-0.2500000000,0.1000000000,-0.0000000000,-0.2100000000,47.2228969000,8.8183875000,0.5300000000,-0.0897439623,0.0390716989,0.0453983174,3.4612710414,0.1955794069,0.1875000000,-3.4539831741,-0.3713910548,0.1145307744
92281760.0000000000,-1.8750000000,0.3120000000,0.0625000000,-0.7500000000,-0.4375000000,-0.3125000000,-0.2600000000,1.1200000000,-0.4000000000,47.2228969000,8.8183875000,0.5100000000,-0.0919826942,0.0524705786,-0.1262603780,2.5205890239,0.5081640220,0.2500000000,-0.5373962203,-0.3713910548,0.1145307744
92293637.0000000000,-1.8750000000,0.3120000000,0.0625000000,0.4375000000,-0.1875000000,-0.3750000000,-0.3600000000,0.6600000000,-0.3200000000,47.2228969000,8.8183875000,0.5100000000,-0.0953252256,0.0601084361,-0.1141484955,3.7112232485,0.2715629018,0.3125000000,-0.6585150450,-0.3713910548,0.1145307744
92308393.0000000000,-1.8750000000,0.3120000000,0.0625000000,-0.3125000000,-0.4375000000,-0.1250000000,0.7400000000,-1.7200000000,-0.1000000000,47.2228969000,8.8183875000,0.5300000000,-0.0835982488,0.0348804436,0.0350873410,2.9659027925,0.5292007593,0.0625000000,-3.3508734101,-0.3713910548,0.1145307744
92318539.0000000000,-1.8750000000,0.3120000000,0.0625000000,0.0625000000,-0.2500000000,0.4375000000,-0.1500000000,1.9300000000,-0.5000000000,47.2228969000,8.8183875000,0.5100000000,-0.0842940587,0.0542611246,-0.1676262840,3.3244850250,0.3164727668,-0.5000000000,-0.1237371604,-0.3713910548,0.1145307744
92327025.0000000000,-1.8750000000,0.3120000000,0.0625000000,0.0625000000,-0.2500000000,0.4375000000,0.8600000000,0.3200000000,-0.2300000000,47.2228969000,8.8183875000,0.5300000000,-0.0762471406,0.0566941972,0.0851386518,3.3254591588,0.3358534478,-0.5000000000,-3.8513865176,-0.3713910548,0.1145307744
92340401.0000000000,-1.8750000000,0.3120000000,0.0625000000,-0.4375000000,-0.1875000000,0.8125000000,0.0600000000,-2.1600000000,-0.1500000000,47.2228969000,8.8183875000,0.5200000000,-0.0747232404,0.0279769014,0.0033315020,2.8141934735,0.2757865203,-0.8750000000,-2.4333150199,-0.3713910548,0.1145307744
92352087.0000000000,-1.8750000000,0.3120000000,0.0625000000,-0.1250000000,0.2500000000,0.4375000000,-0.0800000000,0.7200000000,-0.2500000000,47.2228969000,8.8183875000,0.5100000000,-0.0749304620,0.0364225778,-0.0823437970,3.1245600132,-0.1904307754,-0.5000000000,-0.9765620296,-0.3713910548,0.1145307744
92361758.0000000000,-1.8750000000,0.3120000000,0.0625000000,0.8125000000,-0.1875000000,0.3125000000,0.2100000000,-2.1300000000,0.0800000000,47.2228969000,8.8183875000,0.5300000000,-0.0721944922,0.0159925550,0.1357573316,4.0623501235,0.2555149009,-0.3750000000,-4.3575733163,-0.3713910548,0.1145307744
92369763.0000000000,-1.8750000000,0.3120000000,0.0625000000,2.3750000000,0.4375000000,0.1875000000,-1.1800000000,0.9900000000,-0.4500000000,47.2228969000,8.8183875000,0.5200000000,-0.0808438007,0.0239493632,-0.0040234468,5.6210197658,-0.3899151218,-0.2500000000,-1.7597655322,-0.3713910548,0.1145307744
92381404.0000000000,-1.9375000000,0.3120000000,0.0625000000,2.3750000000,-0.1250000000,-0.3750000000,1.9800000000,-0.0000000000,0.0400000000,47.2228969000,8.8183875000,0.5400000000,-0.0572454859,0.0241040106,0.1714531888,5.7206287976,0.1805416864,0.3125000000,-4.7145318883,-0.3713910548,0.1145307744
92389406.0000000000,-1.9375000000,0.3120000000,0.0625000000,2.6250000000,0.1250000000,0.0000000000,-2.1300000000,-1.5900000000,-0.1800000000,47.2228969000,8.8183875000,0.5300000000,-0.0735666534,0.0115379540,0.0300009576,5.9375911570,-0.0693036662,-0.0625000000,-2.7000095756,-0.3713910548,0.1145307744
92401671.0000000000,-1.9375000000,0.3120000000,0.0625000000,0.7500000000,0.5000000000,-0.1875000000,-0.6400000000,-2.2400000000,0.1100000000,47.2228969000,8.8183875000,0.5400000000,-0.0806324468,-0.0153610212,0.1127492819,4.0854407915,-0.4568697228,0.1250000000,-4.1274928191,-0.3713910548,0.1145307744
92409674.0000000000,-1.9375000000,0.3120000000,0.0625000000,-0.9375000000,0.3125000000,1.0000000000,-1.5500000000,1.5200000000,-0.7700000000,47.2228969000,8.8183875000,0.5200000000,-0.0921265332,-0.0028935310,-0.1520195963,2.4078329021,-0.2962686980,-1.0625000000,-0.2798040371,-0.3713910548,0.1145307744
92417677.0000000000,-1.9375000000,0.3120000000,0.0625000000,-0.9375000000,0.3125000000,1.0000000000,2.7900000000,-0.8900000000,0.2600000000,47.2228969000,8.8183875000,0.5200000000,-0.0691199890,-0.0096450734,-0.1329865205,2.4239246232,-0.2838012078,-1.0625000000,-0.4701347947,-0.3713910548,0.1145307744
92426856.0000000000,-1.9375000000,0.3120000000,0.0625000000,0.6875000000,-0.6250000000,1.6250000000,2.7900000000,-0.8900000000,0.2600000000,47.2228969000,8.8183875000,0.5300000000,-0.0430981912,-0.0173254570,-0.0063494599,4.0167154613,0.6469472498,-1.6875000000,-2.3365054006,-0.3713910548,0.1145307744
92434859.0000000000,-1.9375000000,0.3120000000,0.1250000000,0.3125000000,-0.3125000000,2.0000000000,-2.7300000000,-1.2700000000,-0.4500000000,47.2228969000,8.8183875000,0.5300000000,-0.0643167249,-0.0269434087,-0.0069973148,3.6052849444,0.3267668662,-2.1250000000,-2.3300268518,-0.3713910548,0.1145307744
92442863.0000000000,-1.9375000000,0.3120000000,0.1250000000,-0.3125000000,0.5625000000,1.5625000000,-0.1300000000,-1.5100000000,-0.3100000000,47.2228969000,8.8183875000,0.5700000000,-0.0647234823,-0.0383681548,0.4931780844,3.0099908915,-0.5578510856,-1.6875000000,-9.7317808444,-0.3713910548,0.1145307744
92451667.0000000000,-2.0000000000,0.3120000000,0.1250000000,1.1875000000,0.3750000000,1.2500000000,-1.5500000000,1.3700000000,-0.8600000000,47.2228969000,8.8183875000,0.5500000000,-0.0776077754,-0.0257455222,0.2120309384,4.5980603519,-0.3817758316,-1.3750000000,-5.7203093841,-0.3713910548,0.1145307744
92459671.0000000000,-2.0000000000,0.3120000000,0.1250000000,0.8750000000,0.2500000000,-0.0625000000,2.7500000000,0.8900000000,-0.1100000000,47.2228969000,8.8183875000,0.5500000000,-0.0550606175,-0.0181647432,0.1919941074,4.3035983622,-0.2441531991,-0.0625000000,-5.5199410741,-0.3713910548,0.1145307744
92471959.0000000000,-2.0000000000,0.3120000000,0.1250000000,2.0000000000,0.2500000000,-0.1250000000,0.7600000000,2.4400000000,-0.4500000000,47.2228969000,8.8183875000,0.5200000000,-0.0452949330,0.0121158441,-0.0733155718,5.3970323412,-0.2365724200,0.0000000000,-1.0668442815,-0.3713910548,0.1145307744
92483653.0000000000,-2.0000000000,0.3120000000,0.1250000000,1.6250000000,-0.1250000000,-1.3125000000,0.2000000000,-2.1900000000,0.1300000000,47.2228969000,8.8183875000,0.5200000000,-0.0425555143,-0.0129631402,-0.0617541779,5.0083603828,0.1687081673,1.1875000000,-1.1824582208,-0.3713910548,0.1145307744
92492652.0000000000,-2.0000000000,0.3120000000,0.1250000000,0.6250000000,-0.5000000000,-0.2500000000,-2.2100000000,0.6800000000,-0.8400000000,47.2228969000,8.8183875000,0.5500000000,-0.0618411438,-0.0064706939,0.2731905156,4.0045251967,0.5186291829,0.1250000000,-5.7319051564,-0.3713910548,0.1145307744
92500656.0000000000,-2.0000000000,0.3120000000,0.1250000000,0.6250000000,-0.2500000000,1.1875000000,2.0000000000,0.0500000000,0.2000000000,47.2228969000,8.8183875000,0.5400000000,-0.0453946222,-0.0057387895,0.1243333117,4.0315250779,0.2751216293,-1.3125000000,-3.6433331169,-0.3713910548,0.1145307744
92508660.0000000000,-2.0000000000,0.3120000000,0.1250000000,0.6250000000,-0.2500000000,1.1875000000,-1.8200000000,-1.6200000000,-0.6200000000,47.2228969000,8.8183876000,0.5200000000,-0.0732745126,-0.0182472174,-0.1404826551,4.0084999478,0.2758535337,-1.3125000000,0.2048265511,-0.3825105474,0.1145307744
92521201.0000000000,-2.0625000000,0.3120000000,0.1250000000,0.9375000000,0.2500000000,1.8125000000,0.9800000000,0.7700000000,-0.4000000000,47.2228969000,8.8183876000,0.5100000000,-0.0604055283,-0.0080801277,-0.2076186993,4.4630990840,-0.2366548942,-1.9375000000,1.4761869935,-0.3825105474,0.1145307744
92529205.0000000000,-2.0625000000,0.3120000000,0.1250000000,0.9375000000,0.2500000000,1.8125000000,0.9800000000,0.7700000000,-0.4000000000,47.2228969000,8.8183876000,0.5400000000,-0.0520558021,-0.0016268778,0.1870329831,4.4450825059,-0.2264878046,-1.9375000000,-4.2703298313,-0.3825105474,0.1145307744
92540902.0000000000,-2.0625000000,0.3120000000,0.1875000000,3.1250000000,0.1250000000,-0.3750000000,-1.5000000000,0.8000000000,-0.5100000000,47.2228969000,8.8183876000,0.5100000000,-0.0689342392,0.0080494520,-0.0906528848,6.6208928892,-0.0950345547,0.1875000000,0.3065288481,-0.3825105474,0.1145307744
92550109.0000000000,-2.1250000000,0.3120000000,0.1875000000,1.3125000000,-0.0000000000,-1.9375000000,-0.7100000000,-1.9000000000,-0.3300000000,47.2228969000,8.8183876000,0.5400000000,-0.0747392844,-0.0090376789,0.2437700052,4.9195227011,0.0396417751,1.7500000000,-4.8377000516,-0.3825105474,0.1145307744
92558111.0000000000,-2.1250000000,0.3120000000,0.1250000000,1.3125000000,-0.0000000000,-1.9375000000,-2.8600000000,1.2500000000,-0.5800000000,47.2228969000,8.8183876000,0.5600000000,-0.0966685593,0.0012261046,0.4671116457,4.9276497644,0.0225546442,1.8125000000,-8.2711164569,-0.3825105474,0.1145307744
92571559.0000000000,-2.1250000000,0.3120000000,0.1250000000,-1.3125000000,-0.3750000000,-1.4375000000,1.2300000000,1.4400000000,-0.1800000000,47.2228969000,8.8183876000,0.5300000000,-0.0793595279,0.0208406347,0.1984312661,2.3333507493,0.4078184277,1.3125000000,-3.7843126609,-0.3825105474,0.1145307744
92579562.0000000000,-2.1250000000,0.3120000000,0.1250000000,-1.3125000000,-0.3750000000,-1.4375000000,1.2300000000,1.4400000000,-0.1800000000,47.2228969000,8.8183876000,0.5300000000,-0.0688404869,0.0323122707,0.1792500676,2.3091181053,0.4274329579,1.3125000000,-3.5925006761,-0.3825105474,0.1145307744
92587567.0000000000,-2.0625000000,0.3120000000,0.1250000000,-1.9375000000,-0.5000000000,-0.5625000000,-2.4500000000,-2.3600000000,-0.3200000000,47.2228969000,8.8183876000,0.5300000000,-0.0875880219,0.0135572993,0.1609785244,1.5818914480,0.5639045939,0.4375000000,-2.8097852440,-0.3825105474,0.1145307744
92595570.0000000000,-2.0625000000,0.3120000000,0.1250000000,-1.3125000000,-0.0000000000,1.2500000000,2.6000000000,-0.4800000000,-0.0700000000,47.2228969000,8.8183876000,0.5500000000,-0.0661322272,0.0098896663,0.3962411822,2.2331379970,0.0451496225,-1.3750000000,-6.3624118223,-0.3825105474,0.1145307744
92605840.0000000000,-2.0625000000,0.3120000000,0.1250000000,-1.9375000000,-0.1875000000,2.1875000000,-1.8300000000,-1.2600000000,-0.7000000000,47.2228969000,8.8183876000,0.5600000000,-0.0841024821,-0.0026723067,0.4500311192,1.5780998843,0.2289819895,-2.3125000000,-7.5003111916,-0.3825105474,0.1145307744
92616275.0000000000,-2.0625000000,0.3120000000,0.1875000000,-0.6250000000,-0.1250000000,1.9375000000,2.1300000000,2.1700000000,-0.0100000000,47.2228969000,8.8183876000,0.5300000000,-0.0612829994,0.0201252351,0.1199936305,2.9157582413,0.1539200165,-2.1250000000,-2.3999363055,-0.3825105474,0.1145307744
92626544.0000000000,-2.0625000000,0.3120000000,0.1875000000,0.1250000000,-0.2500000000,0.5000000000,0.3200000000,-1.7000000000,0.0000000000,47.2228969000,8.8183876000,0.5300000000,-0.0574423660,0.0029889435,0.1105071945,3.6338109655,0.3017175583,-0.6875000000,-2.3050719448,-0.3825105474,0.1145307744
92637513.0000000000,-2.0625000000,0.3120000000,0.1250000000,0.5000000000,0.1250000000,-1.0000000000,3.2800000000,0.7800000000,0.0700000000,47.2228969000,8.8183876000,0.5500000000,-0.0212765538,0.0118007043,0.2851637726,4.0034340787,-0.0904187333,0.8750000000,-5.2516377265,-0.3825105474,0.1145307744
92646990.0000000000,-2.0625000000,0.3120000000,0.1250000000,1.5625000000,-0.0625000000,-2.4375000000,-0.9900000000,-1.8100000000,-0.4400000000,47.2228969000,8.8183876000,0.5300000000,-0.0303756516,-0.0049782668,0.0441763720,5.0153019417,0.1058930275,2.3125000000,-1.6417637198,-0.3825105474,0.1145307744
92661774.0000000000,-2.0625000000,0.3120000000,0.1250000000,0.5625000000,-0.0000000000,1.1875000000,0.2200000000,-0.9800000000,0.0800000000,47.2228969000,8.8183876000,0.5200000000,-0.0268885303,-0.0187713642,-0.0231997172,4.0280406785,0.0266140564,-1.3125000000,-0.3680028278,-0.3825105474,0.1145307744
92671416.0000000000,-2.0625000000,0.3120000000,0.1250000000,3.3750000000,-1.3750000000,1.3750000000,-0.8400000000,0.6400000000,-0.1500000000,47.2228969000,8.8183876000,0.5300000000,-0.0346617961,-0.0121480206,0.0838910010,6.8356587086,1.3878209589,-1.5000000000,-2.0389100095,-0.3825105474,0.1145307744
92679419.0000000000,-2.1250000000,0.3120000000,0.1250000000,3.3750000000,-1.3750000000,1.3750000000,-0.4800000000,1.3500000000,-0.5100000000,47.2228969000,8.8183876000,0.5200000000,-0.0381380112,-0.0010595653,-0.0511662046,6.9340412808,1.3944443026,-1.5000000000,0.5116620459,-0.3825105474,0.1145307744
92688169.0000000000,-2.1250000000,0.3120000000,0.1250000000,-1.1875000000,-0.8125000000,0.1875000000,0.9200000000,-1.0500000000,-0.2300000000,47.2228969000,8.8183876000,0.5400000000,-0.0298087873,-0.0098483371,0.1828518069,2.3764079819,0.8430327579,-0.3125000000,-3.0285180694,-0.3825105474,0.1145307744
92697603.0000000000,-2.1250000000,0.3120000000,0.1250000000,3.4375000000,0.6250000000,-0.4375000000,0.9200000000,-1.0500000000,-0.2300000000,47.2228969000,8.8183876000,0.5300000000,-0.0209415614,-0.0192370804,0.0589228064,6.9897470685,-0.6032560139,0.3125000000,-1.1892280639,-0.3825105474,0.1145307744
92707623.0000000000,-2.1875000000,0.3120000000,0.1250000000,2.7500000000,0.8125000000,-0.8750000000,0.1900000000,-1.4800000000,-0.2600000000,47.2228969000,8.8183876000,0.5300000000,-0.0188721833,-0.0333867564,0.0531378399,6.3773329522,-0.8001447572,0.7500000000,-1.1313783995,-0.3825105474,0.1145307744
92719245.0000000000,-2.1875000000,0.3120000000,0.1250000000,1.6250000000,-0.1875000000,-0.6875000000,-0.2100000000,-1.6300000000,-0.3600000000,47.2228969000,8.8183876000,0.5400000000,-0.0211284397,-0.0514138126,0.1329462578,5.2494358229,0.1857055668,0.5625000000,-2.5294625778,-0.3825105474,0.1145307744
92728296.0000000000,-2.1875000000,0.3120000000,0.1250000000,0.8750000000,-1.1250000000,-0.0625000000,-0.2100000000,-1.6300000000,-0.3600000000,47.2228969000,8.8183876000,0.5400000000,-0.0228212594,-0.0651988244,0.1189339782,4.5025945819,1.1051785106,-0.0625000000,-2.3893397821,-0.3825105474,0.1145307744
92741323.0000000000,-2.1875000000,0.3120000000,0.1250000000,0.5625000000,0.2500000000,1.0625000000,1.7600000000,0.2900000000,-0.0600000000,47.2228969000,8.8183876000,0.5400000000,0.0000729562,-0.0603657163,0.1095249596,4.1924645295,-0.2836065012,-1.1875000000,-2.2952495956,-0.3825105474,0.1145307744
92749326.0000000000,-2.1875000000,0.3120000000,0.1250000000,0.5625000000,0.2500000000,1.0625000000,0.0400000000,1.9500000000,-0.3800000000,47.2228969000,8.8183876000,0.5200000000,0.0003693380,-0.0440413020,-0.1521124334,4.1604126277,-0.2787733931,-1.1875000000,1.5211243341,-0.3825105474,0.1145307744
92762792.0000000000,-2.1875000000,0.3120000000,0.1250000000,0.6875000000,0.4375000000,0.0625000000,1.8000000000,-1.7500000000,-0.0400000000,47.2228969000,8.8183876000,0.5400000000,0.0243287282,-0.0664748022,0.0144315029,4.2849976931,-0.4499489789,-0.1875000000,-0.7443150286,-0.3825105474,0.1145307744
92770797.0000000000,-2.1875000000,0.3120000000,0.1250000000,1.0000000000,0.4375000000,0.3125000000,-3.3400000000,1.3400000000,-0.7400000000,47.2228969000,8.8183876000,0.5400000000,-0.0024037044,-0.0549195879,0.0096159261,4.5639545468,-0.4723824790,-0.4375000000,-0.6961592613,-0.3825105474,0.1145307744
92779376.0000000000,-2.1875000000,0.3120000000,0.1250000000,1.0000000000,0.4375000000,0.3125000000,2.6600000000,0.3200000000,-0.1600000000,47.2228969000,8.8183876000,0.5500000000,0.0201910382,-0.0513620970,0.1260820267,4.6013799525,-0.4608272647,-0.4375000000,-2.4608202667,-0.3825105474,0.1145307744
92792706.0000000000,-2.1875000000,0.3120000000,0.1250000000,1.6250000000,-0.5625000000,0.8125000000,3.7300000000,1.6200000000,-0.1800000000,47.2228969000,8.8183876000,0.5300000000,0.0691798271,-0.0290184949,-0.0354611611,5.1947473128,0.5427302262,-0.9375000000,0.3546116108,-0.3825105474,0.1145307744
92800708.0000000000,-2.1875000000,0.3120000000,0.1250000000,1.7500000000,-0.1250000000,1.0000000000,-2.1100000000,-1.8100000000,-0.2200000000,47.2228969000,8.8183876000,0.5500000000,0.0517528460,-0.0427961621,0.2183962441,5.2511630084,0.1275738283,-1.1250000000,-3.3839624407,-0.3825105474,0.1145307744
92809075.0000000000,-2.2500000000,0.3120000000,0.1250000000,1.7500000000,-0.1250000000,1.0000000000,2.4000000000,2.0900000000,-0.3100000000,47.2228969000,8.8183876000,0.5300000000,0.0710946013,-0.0247727508,-0.0427645862,5.3630607818,0.1137961611,-1.1250000000,0.4276458619,-0.3825105474,0.1145307744
92822833.0000000000,-2.2500000000,0.3120000000,0.1250000000,-0.2500000000,-0.3750000000,-0.2500000000,-2.6100000000,-2.2500000000,-0.1800000000,47.2228969000,8.8183876000,0.5400000000,0.0348003080,-0.0547051500,0.0353347799,3.3359823245,0.3818195723,0.1250000000,-0.9533477989,-0.3825105474,0.1145307744
92831701.0000000000,-2.2500000000,0.3120000000,0.1250000000,-0.5000000000,0.2500000000,-0.5000000000,-1.3700000000,-2.6200000000,0.0200000000,47.2228969000,8.8183876000,0.5300000000,0.0224026882,-0.0768596641,-0.0786339836,3.1367943351,-0.2731128268,0.3750000000,1.3863398356,-0.3825105474,0.1145307744
92839864.0000000000,-2.2500000000,0.3120000000,0.1250000000,-0.5000000000,0.2500000000,-0.5000000000,1.8400000000,2.5000000000,-0.6700000000,47.2228969000,8.8183876000,0.5100000000,0.0370281787,-0.0556112596,-0.3187032692,3.1541510028,-0.2952673409,0.3750000000,4.9870326923,-0.3825105474,0.1145307744
92853215.0000000000,-2.1875000000,0.3120000000,0.1250000000,-0.5000000000,0.1250000000,0.2500000000,-0.3800000000,-2.4000000000,0.1800000000,47.2228969000,8.8183876000,0.5200000000,0.0316022070,-0.0863250849,-0.2065022006,3.0461753161,-0.1490189365,-0.3750000000,3.2650220060,-0.3825105474,0.1145307744
92865059.0000000000,-2.2500000000,0.3120000000,0.1875000000,1.1250000000,0.5000000000,0.8125000000,-1.3000000000,2.3100000000,-0.5900000000,47.2228969000,8.8183876000,0.5200000000,0.0160136430,-0.0579747763,-0.1892427993,4.7662716765,-0.5547327617,-1.0000000000,3.0924279930,-0.3825105474,0.1145307744
92878108.0000000000,-2.2500000000,0.3120000000,0.1875000000,-0.3125000000,-0.3125000000,-0.5000000000,-3.1400000000,0.4100000000,-0.5700000000,47.2228969000,8.8183876000,0.5500000000,-0.0247429111,-0.0516566264,0.0560832390,3.3505956660,0.2861175469,0.3125000000,-1.1608323895,-0.3825105474,0.1145307744
92886112.0000000000,-2.2500000000,0.3120000000,0.1250000000,1.0000000000,-0.3125000000,-1.1250000000,4.1800000000,0.4500000000,-0.1600000000,47.2228969000,8.8183876000,0.5400000000,0.0086068609,-0.0473032787,-0.0736565333,4.7201548418,0.2924356968,1.0000000000,0.7365653334,-0.3825105474,0.1145307744
92896071.0000000000,-2.2500000000,0.3120000000,0.1250000000,-0.3125000000,0.3750000000,-1.0000000000,-4.0700000000,-1.1500000000,-0.3600000000,47.2228969000,8.8183876000,0.5200000000,-0.0316316549,-0.0578313756,-0.2679039050,3.3609651610,-0.3907109555,0.8750000000,4.4790390495,-0.3825105474,0.1145307744
92908624.0000000000,-2.2500000000,0.3120000000,0.1250000000,0.4375000000,0.3125000000,-0.6250000000,4.6100000000,0.8600000000,-0.0600000000,47.2228969000,8.8183876000,0.5200000000,0.0259442297,-0.0461404181,-0.2387195318,4.1672990831,-0.3387390524,0.5000000000,4.1871953183,-0.3825105474,0.1145307744
92918559.0000000000,-2.2500000000,0.3120000000,0.1250000000,0.5000000000,-0.0625000000,0.4375000000,4.1200000000,1.2600000000,-0.0400000000,47.2228969000,8.8183876000,0.5200000000,0.0661830763,-0.0329497157,-0.2127740448,4.1491928447,0.0479519050,-0.5625000000,3.9277404480,-0.3825105474,0.1145307744
92928604.0000000000,-2.2500000000,0.3120000000,0.1250000000,-0.0625000000,0.4375000000,0.5000000000,-3.4200000000,-0.2200000000,-0.3900000000,47.2228969000,8.8183876000,0.5200000000,0.0314860231,-0.0344679160,-0.1925643234,3.5303584595,-0.4388573925,-0.6250000000,3.7256432337,-0.3825105474,0.1145307744
92936607.0000000000,-2.2500000000,0.3120000000,0.1250000000,-1.3750000000,0.0625000000,1.0625000000,2.5900000000,0.4800000000,-0.2100000000,47.2228969000,8.8183876000,0.5300000000,0.0516718478,-0.0300492456,-0.0479089013,2.2664343339,-0.0653755928,-1.1875000000,1.6790890133,-0.3825105474,0.1145307744
92947601.0000000000,-2.1875000000,0.3120000000,0.1250000000,-2.3125000000,0.1875000000,0.1250000000,-3.7000000000,0.7400000000,-0.4600000000,47.2228969000,8.8183876000,0.5200000000,0.0108568971,-0.0213223139,-0.1359378902,1.2131741794,-0.1859569224,-0.2500000000,3.7593789020,-0.3825105474,0.1145307744
92958086.0000000000,-2.1875000000,0.3120000000,0.1250000000,-0.0625000000,-0.0000000000,-0.3125000000,1.2800000000,1.9000000000,-0.3900000000,47.2228969000,8.8183876000,0.5300000000,0.0240089698,-0.0010318046,-0.0280842075,3.5203151103,0.0102700093,0.1875000000,2.0808420753,-0.3825105474,0.1145307744
92972722.0000000000,-2.1875000000,0.3120000000,0.1250000000,-0.6875000000,-0.3750000000,-0.9375000000,2.8900000000,0.3700000000,-0.0300000000,47.2228969000,8.8183876000,0.5300000000,0.0656077156,0.0048352259,-0.0220893832,2.8769022086,0.4055605185,0.8125000000,2.0208938322,-0.3825105474,0.1145307744
92982814.0000000000,-2.1875000000,0.3120000000,0.1250000000,-0.6875000000,-0.1875000000,-1.0625000000,-0.7700000000,1.4800000000,-0.3800000000,47.2228969000,8.8183876000,0.5200000000,0.0572335291,0.0199153670,-0.1199506824,2.8186639645,0.2239275491,0.9375000000,3.5995068242,-0.3825105474,0.1145307744
92990817.0000000000,-2.1875000000,0.3120000000,0.1250000000,-0.6875000000,-0.1875000000,-1.0625000000,2.8900000000,0.3000000000,0.0900000000,47.2228969000,8.8183876000,0.5300000000,0.0795387697,0.0223640699,0.0196041855,2.8303878255,0.2390076901,0.9375000000,1.6039581447,-0.3825105474,0.1145307744
93004277.0000000000,-2.1875000000,0.3120000000,0.1250000000,0.9375000000,0.2500000000,0.2500000000,0.4500000000,1.4800000000,-0.2000000000,47.2228969000,8.8183876000,0.5200000000,0.0847064985,0.0423177498,-0.0557794415,4.4241604887,-0.1960436070,-0.3750000000,3.5577944148,-0.3825105474,0.1145307744
93012296.0000000000,-2.1875000000,0.3120000000,0.1250000000,0.1250000000,0.4375000000,1.0625000000,-2.0000000000,0.4000000000,-0.4800000000,47.2228969000,8.8183876000,0.5200000000,0.0679619665,0.0453416037,-0.0517033758,3.6044256684,-0.3635899270,-1.1875000000,3.5170337584,-0.3825105474,0.1145307744
93020545.0000000000,-2.1875000000,0.3120000000,0.1250000000,0.1250000000,0.4375000000,1.0625000000,1.7100000000,-0.5200000000,0.0800000000,47.2228969000,8.8183876000,0.5300000000,0.0812266627,0.0409208971,0.0773063179,3.6278680132,-0.3605660732,-1.1875000000,1.6269368210,-0.3825105474,0.1145307744
93030780.0000000000,-2.1875000000,0.3120000000,0.1250000000,0.1875000000,-0.1875000000,1.8125000000,-2.8400000000,1.1100000000,-0.4500000000,47.2228969000,8.8183876000,0.5300000000,0.0516123384,0.0521054662,0.0679351180,3.6717974386,0.2600132202,-1.9375000000,1.7206488204,-0.3825105474,0.1145307744
93040034.0000000000,-2.1875000000,0.3120000000,0.1875000000,0.3750000000,0.1875000000,0.9375000000,0.0000000000,-0.3600000000,-0.1500000000,47.2228969000,8.8183876000,0.5200000000,0.0510733114,0.0485996079,-0.0459045164,3.9007574925,-0.1038022106,-1.1250000000,3.4590451636,-0.3825105474,0.1145307744
93051654.0000000000,-2.1875000000,0.3120000000,0.1875000000,0.3750000000,0.0625000000,0.1250000000,2.0400000000,-0.0800000000,0.2800000000,47.2228969000,8.8183876000,0.5200000000,0.0740015708,0.0475867378,-0.0355422945,3.9015121304,0.0176919311,-0.3125000000,3.9554229452,-0.3825105474,0.1145307744
93060097.0000000000,-2.1875000000,0.3120000000,0.1250000000,0.4375000000,-0.6875000000,-1.1875000000,-0.8200000000,1.5900000000,-0.2900000000,47.2228969000,8.8183876000,0.5300000000,0.0663866312,0.0606868598,0.0863157108,3.9319125672,0.7666790609,1.0625000000,2.1368428921,-0.3825105474,0.1145307744
93069590.0000000000,-2.1875000000,0.3120000000,0.1250000000,0.2500000000,-0.1250000000,-1.1875000000,-0.8200000000,1.5900000000,-0.2900000000,47.2228969000,8.8183876000,0.5400000000,0.0579928524,0.0753443365,0.1828702762,3.7550734826,0.2172791830,1.0625000000,0.5712972384,-0.3825105474,0.1145307744
93079859.0000000000,-2.1875000000,0.3120000000,0.1250000000,0.0625000000,-0.2500000000,0.0625000000,1.9500000000,-1.0300000000,0.0100000000,47.2228969000,8.8183876000,0.5300000000,0.0772118126,0.0644672816,0.0698081311,3.5793247730,0.3569366597,-0.1875000000,2.3019186895,-0.3825105474,0.1145307744
93089185.0000000000,-2.1875000000,0.3120000000,0.1875000000,0.3125000000,0.3750000000,2.6250000000,0.7600000000,1.6700000000,-0.3100000000,47.2228969000,8.8183876000,0.5300000000,0.0834334950,0.0795570443,0.0625075294,3.8024182287,-0.2789403952,-2.8125000000,2.3749247059,-0.3825105474,0.1145307744
93097188.0000000000,-2.1875000000,0.3120000000,0.1875000000,0.1875000000,1.1875000000,3.3750000000,-2.6500000000,-0.5100000000,-0.2400000000,47.2228969000,8.8183876000,0.5300000000,0.0615834821,0.0749917247,0.0564865426,3.6687078733,-1.0763506325,-3.5625000000,3.0351345740,-0.3825105474,0.1145307744
93107496.0000000000,-2.1875000000,0.3120000000,0.2500000000,0.3125000000,1.3750000000,3.3125000000,3.2400000000,-0.5700000000,-0.0900000000,47.2228969000,8.8183876000,0.5200000000,0.0940060758,0.0687740114,-0.0444866185,3.8242978914,-1.2684159521,-3.5625000000,4.6448661847,-0.3825105474,0.1145307744
93116962.0000000000,-2.1875000000,0.3120000000,0.2500000000,0.8125000000,1.5625000000,3.1875000000,-2.1100000000,-0.4900000000,-0.4700000000,47.2228969000,8.8183876000,0.5400000000,0.0732690593,0.0638148145,0.1695568349,4.2789062602,-1.4621336655,-3.4375000000,1.3044316508,-0.3825105474,0.1145307744
93130293.0000000000,-2.2500000000,0.3120000000,0.3125000000,2.2500000000,1.5625000000,3.6875000000,3.0100000000,0.6700000000,-0.2000000000,47.2228969000,8.8183876000,0.5300000000,0.1122284214,0.0724704796,0.0784506731,5.8329380833,-1.4670928623,-4.0000000000,2.8154932686,-0.3825105474,0.1145307744
93141814.0000000000,-2.2500000000,0.3745000000,0.3125000000,2.4375000000,1.8750000000,3.6875000000,-3.7700000000,1.6400000000,-0.7900000000,47.2228969000,8.8183876000,0.5300000000,0.0680777944,0.0908413484,0.0652334787,5.9658949764,-1.8334371972,-4.0000000000,3.5476652127,-0.3825105474,0.1145307744
93153262.0000000000,-2.3125000000,0.3745000000,0.3750000000,3.2500000000,0.9375000000,1.8125000000,-1.6700000000,-0.0400000000,-0.3200000000,47.2228969000,8.8183876000,0.5200000000,0.0484417042,0.0898672005,-0.0291369555,6.9277058542,-0.8775663284,-2.1875000000,5.0913695551,-0.3825105474,0.1145307744
93161532.0000000000,-2.3125000000,0.3745000000,0.3750000000,3.2500000000,0.9375000000,1.8125000000,2.1100000000,0.7000000000,-0.2600000000,47.2228969000,8.8183876000,0.5300000000,0.0652120219,0.0949796442,0.0947842960,6.9551963804,-0.8785404763,-2.1875000000,3.2521570398,-0.3825105474,0.1145307744
93172967.0000000000,-2.3750000000,0.3745000000,0.3750000000,2.8125000000,-0.2500000000,1.7500000000,-1.3400000000,1.7700000000,-0.9600000000,47.2228969000,8.8183876000,0.5300000000,0.0493619291,0.1144545645,0.0782242853,6.5817179356,0.3140719674,-2.1250000000,3.4177571473,-0.3825105474,0.1145307744
93181694.0000000000,-2.3750000000,0.3745000000,0.3750000000,2.8125000000,-0.2500000000,1.7500000000,-1.3400000000,1.7700000000,-0.9600000000,47.2228969000,8.8183876000,0.5300000000,0.0372694723,0.1288978197,0.0649973129,6.6039080656,0.3335468877,-2.1250000000,4.1500268708,-0.3825105474,0.1145307744
93189698.0000000000,-2.3750000000,0.3745000000,0.4375000000,0.2500000000,-0.6250000000,1.7500000000,0.6100000000,-1.5900000000,0.4700000000,47.2228969000,8.8183876000,0.5300000000,0.0417105832,0.1152807445,0.0638419325,4.0583375051,0.7229901429,-2.1875000000,4.1615806754,-0.3825105474,0.1145307744
93197701.0000000000,-2.3750000000,0.3745000000,0.4375000000,1.3125000000,-0.3125000000,1.6250000000,-1.9100000000,0.4300000000,-0.2000000000,47.2228969000,8.8183876000,0.5400000000,0.0261407973,0.1178057798,0.1829287559,5.1146199497,0.3968730677,-2.0625000000,2.3707124408,-0.3825105474,0.1145307744
93207345.0000000000,-2.4375000000,0.3745000000,0.4375000000,1.6875000000,0.2500000000,0.5000000000,1.0900000000,-0.8000000000,-0.3400000000,47.2228969000,8.8183876000,0.5300000000,0.0362623608,0.1093162005,0.0603533852,5.5989176501,-0.1631018970,-0.9375000000,4.7964661478,-0.3825105474,0.1145307744
93216757.0000000000,-2.4375000000,0.3745000000,0.4375000000,1.9375000000,-0.0000000000,-0.4375000000,1.6100000000,1.6000000000,-0.3500000000,47.2228969000,8.8183876000,0.5500000000,0.0508782293,0.1234503180,0.2661511648,5.8347474611,0.0784085237,0.0000000000,1.5384883515,-0.3825105474,0.1145307744
93226841.0000000000,-2.4375000000,0.3745000000,0.4375000000,-0.1250000000,-0.6875000000,-0.8750000000,-2.1200000000,0.4600000000,-0.1200000000,47.2228969000,8.8183876000,0.5400000000,0.0291801899,0.1271494925,0.1417476348,3.7517852453,0.7800426412,0.4375000000,3.3825236522,-0.3825105474,0.1145307744
93234845.0000000000,-2.4375000000,0.3745000000,0.4375000000,1.5625000000,-1.2500000000,-0.8125000000,3.3200000000,0.4500000000,-0.3400000000,47.2228969000,8.8183876000,0.5400000000,0.0551761253,0.1297147790,0.1270823061,5.4696625004,1.3462418157,0.3750000000,3.5291769386,-0.3825105474,0.1145307744
93246816.0000000000,-2.4375000000,0.3745000000,0.3750000000,0.3750000000,-1.1875000000,-1.3750000000,-0.8100000000,1.7400000000,-0.3900000000,47.2228969000,8.8183876000,0.5300000000,0.0449951909,0.1494441899,0.0295664678,4.2457681908,1.2863071022,1.0000000000,5.7043353215,-0.3825105474,0.1145307744
93256144.0000000000,-2.4375000000,0.3120000000,0.3750000000,1.8125000000,-1.5625000000,-0.9375000000,-1.8200000000,0.3700000000,-0.2500000000,47.2228969000,8.8183876000,0.5100000000,0.0277149618,0.1516824219,-0.1876145573,5.6975214990,1.7435365131,0.5625000000,9.0761455733,-0.3825105474,0.1145307744
93264147.0000000000,-2.4375000000,0.3120000000,0.3750000000,3.0000000000,-1.8750000000,-0.9375000000,1.3100000000,-0.6700000000,-0.2900000000,47.2228969000,8.8183876000,0.5300000000,0.0377970955,0.1451281733,0.0809228147,6.9092138197,2.0582747450,0.5625000000,5.1907718533,-0.3825105474,0.1145307744
93276408.0000000000,-2.5000000000,0.3120000000,0.3750000000,2.1250000000,-1.8750000000,-0.8125000000,-1.0600000000,0.8100000000,-0.2200000000,47.2228969000,8.8183876000,0.5400000000,0.0245220852,0.1539241204,0.1549626605,6.1075988326,2.0517204965,0.4375000000,4.4503733945,-0.3825105474,0.1145307744
93286473.0000000000,-2.5000000000,0.2495000000,0.3750000000,2.6250000000,-1.6250000000,0.6250000000,-0.8100000000,-0.3400000000,-0.1200000000,47.2228969000,8.8183876000,0.5300000000,0.0161808299,0.1493377810,0.0414881829,6.6261838471,1.8730164436,-1.0000000000,6.1851181707,-0.3825105474,0.1145307744
93294476.0000000000,-2.5000000000,0.2495000000,0.3750000000,2.1250000000,-1.2500000000,0.2500000000,1.8100000000,-1.1500000000,0.0000000000,47.2228969000,8.8183876000,0.5200000000,0.0303397899,0.1390039533,-0.0856553638,6.1378616044,1.4934301042,-0.6250000000,8.0565536381,-0.3825105474,0.1145307744
93302480.0000000000,-2.5625000000,0.2495000000,0.3750000000,2.1250000000,-1.2500000000,0.2500000000,2.8300000000,-0.3900000000,-0.0700000000,47.2228969000,8.8183876000,0.5100000000,0.0524413889,0.1347945688,-0.2005729518,6.2055390604,1.4830962764,-0.6250000000,9.8057295182,-0.3825105474,0.1145307744
93315961.0000000000,-2.6250000000,0.2495000000,0.3750000000,4.6875000000,0.1875000000,-0.3750000000,-1.3200000000,0.5600000000,-0.1500000000,47.2228969000,8.8183876000,0.5200000000,0.0342666387,0.1413769292,-0.1048581827,8.8245968218,0.0413868919,0.0000000000,8.8485818272,-0.3825105474,0.1145307744
93327595.0000000000,-2.6875000000,0.2495000000,0.3750000000,5.8125000000,0.5625000000,-0.5000000000,0.2000000000,-0.2200000000,-0.0600000000,47.2228969000,8.8183876000,0.5600000000,0.0361987102,0.1378231786,0.2516661941,10.0625414721,-0.3270307477,0.1250000000,2.8833380590,-0.3825105474,0.1145307744
93335599.0000000000,-2.7500000000,0.2495000000,0.3750000000,4.7500000000,0.8125000000,-0.8750000000,2.0700000000,0.1200000000,0.0600000000,47.2228969000,8.8183876000,0.5700000000,0.0522195104,0.1376668215,0.3538279808,9.0848365720,-0.5805844982,0.5000000000,1.2617201924,-0.3825105474,0.1145307744
93347479.0000000000,-2.7500000000,0.2495000000,0.3750000000,3.1875000000,0.2500000000,0.7500000000,2.0600000000,0.7300000000,0.0000000000,47.2228969000,8.8183876000,0.5400000000,0.0758959843,0.1452780623,0.0688270850,7.4999074517,-0.0182408553,-1.1250000000,6.5117291504,-0.3825105474,0.1145307744
93360148.0000000000,-2.8125000000,0.2495000000,0.3750000000,2.8750000000,-0.8125000000,3.3750000000,-0.8500000000,1.5900000000,-0.3000000000,47.2228969000,8.8183876000,0.5500000000,0.0644447052,0.1641965016,0.1405568056,7.2417603883,1.0518703855,-3.7500000000,5.1944319438,-0.3825105474,0.1145307744
93371262.0000000000,-2.8125000000,0.2495000000,0.4375000000,2.4375000000,-1.6875000000,5.6250000000,-1.3800000000,2.0200000000,-0.4500000000,47.2228969000,8.8183876000,0.5500000000,0.0485888042,0.1851566116,0.1247196620,6.8202921790,1.9457888248,-6.0625000000,5.3528033800,-0.3825105474,0.1145307744
93381487.0000000000,-2.8125000000,0.1870000000,0.5000000000,-0.0625000000,-2.3125000000,9.0625000000,0.2800000000,0.6100000000,-0.7700000000,47.2228969000,8.8183876000,0.5400000000,0.0509119793,0.1898261210,0.0098644195,4.3424904404,2.6542489348,-9.5625000000,7.7013558046,-0.3825105474,0.1145307744
93393248.0000000000,-2.8125000000,0.1870000000,0.6875000000,-3.0000000000,-2.8125000000,13.3750000000,2.2500000000,-0.4900000000,-0.0300000000,47.2228969000,8.8183876000,0.5600000000,0.0765713785,0.1826208027,0.1814920318,1.4017379953,3.1589184442,-14.0625000000,4.7850796823,-0.3825105474,0.1145307744
93405354.0000000000,-2.8125000000,0.1245000000,0.8125000000,-1.8125000000,-3.0000000000,17.6875000000,1.5800000000,-2.8000000000,0.4300000000,47.2228969000,8.8183876000,0.5500000000,0.0947119076,0.1476466476,0.0883866423,2.5533148364,3.4017131258,-18.5000000000,6.3161335775,-0.3825105474,0.1145307744
93417540.0000000000,-2.8125000000,0.0620000000,1.1250000000,-1.5625000000,-0.8125000000,14.9375000000,2.5400000000,-0.8400000000,-0.1400000000,47.2228969000,8.8183876000,0.5300000000,0.1243775437,0.1364488971,-0.0831281857,2.7779180957,1.2417389708,-16.0625000000,9.8312818574,-0.3825105474,0.1145307744
93427077.0000000000,-2.8125000000,0.0620000000,1.2500000000,1.0000000000,1.5000000000,10.2500000000,-1.7400000000,-1.3100000000,0.1500000000,47.2228969000,8.8183876000,0.5300000000,0.1066817280,0.1230387766,-0.0711940729,5.2988862051,-1.0819587797,-11.5000000000,9.7119407290,-0.3825105474,0.1145307744
93435080.0000000000,-2.8125000000,0.0620000000,1.2500000000,1.0000000000,1.5000000000,10.2500000000,3.0400000000,-0.1500000000,-0.3300000000,47.2228969000,8.8183876000,0.5500000000,0.1296809321,0.1208909089,0.1854131427,5.3236603471,-1.0953689003,-11.5000000000,6.5458685733,-0.3825105474,0.1145307744
93447142.0000000000,-2.9375000000,0.1870000000,1.3125000000,6.6875000000,6.8750000000,-0.6250000000,-2.5400000000,0.7400000000,-0.4900000000,47.2228969000,8.8183876000,0.5200000000,0.0980231641,0.1289270162,-0.0842107942,11.1539614613,-6.5975167679,-0.6875000000,11.0421079422,-0.3825105474,0.1145307744
93459145.0000000000,-3.0000000000,0.2495000000,1.2500000000,8.1875000000,8.5625000000,-5.4375000000,0.5700000000,-0.1400000000,-0.5100000000,47.2228969000,8.8183876000,0.5200000000,0.1037865180,0.1263805278,-0.0783618377,12.7857823365,-8.3394806606,4.1875000000,10.9836183767,-0.3825105474,0.1145307744
93472839.0000000000,-3.0625000000,0.3745000000,1.1875000000,8.6875000000,8.5000000000,-7.8125000000,-1.8900000000,2.2900000000,-0.8700000000,47.2228969000,8.8183876000,0.5600000000,0.0770919167,0.1566260414,0.2142017322,13.3652136411,-8.4045271490,6.6250000000,6.2579826779,-0.3825105474,0.1145307744
93485250.0000000000,-3.1250000000,0.4370000000,1.1250000000,7.2500000000,6.3750000000,-5.6250000000,0.4700000000,1.8500000000,-0.7400000000,47.2228969000,8.8183876000,0.5600000000,0.0820651187,0.1782107391,0.1875529288,12.0525860828,-6.3117816355,4.5000000000,6.5244707120,-0.3825105474,0.1145307744
93493256.0000000000,-3.1875000000,0.4995000000,1.0625000000,5.3750000000,4.6875000000,-1.5625000000,0.4700000000,1.8500000000,-0.7400000000,47.2228969000,8.8183876000,0.5800000000,0.0849498444,0.1913626878,0.4152374287,10.2581236002,-4.6651969377,0.5000000000,3.0476257130,-0.3825105474,0.1145307744
