Time,Pitch,Roll,Yaw,xGyro,yGyro,ZGyro,xAcc,yAcc,zAcc,latitude,longitude,alt,xSpeed,ySpeed,zSpeed,cP,cR,cY,cPower,PosXError,PosYError
81452674.0000000000,0.0000000000,-1.1880000000,-0.0000000000,0.3125000000,-0.3750000000,2.8750000000,-0.6000000000,-0.2000000000,-0.1900000000,47.2228599000,8.8189446000,0.5300000000,0.0000000000,0.0000000000,0.0000000000,0.4687500000,1.5630000000,-2.8750000000,-4.2000000000,0.4525633512,-0.4736903878
81944560.0000000000,0.0000000000,-1.1880000000,0.0625000000,0.0000000000,0.0625000000,0.8750000000,0.3500000000,-0.1500000000,-0.1600000000,47.2228599000,8.8189446000,0.5300000000,0.0000000000,0.0000000000,0.0000000000,-7.0000000000,-3.8745000000,-0.9375000000,-4.2000000000,0.4525633512,-0.4736903878
81952564.0000000000,0.0000000000,-1.1880000000,0.0625000000,0.0000000000,-0.3750000000,0.3750000000,0.5500000000,-0.3600000000,-0.1400000000,47.2228599000,8.8189446000,0.5400000000,0.0045000169,-0.0028066666,0.1249922786,-7.0000000000,-3.4370000000,-0.4375000000,-6.0499227859,0.4525633512,-0.4736903878
81963966.0000000000,0.0000000000,-1.1880000000,0.0625000000,0.0625000000,-0.3125000000,0.0000000000,-0.0400000000,0.1100000000,-0.1300000000,47.2228599000,8.8189446000,0.5400000000,0.0042055524,-0.0014714519,0.1126736584,-6.9062500000,-3.4995000000,-0.0625000000,-5.9267365841,0.4525633512,-0.4736903878
81975068.0000000000,0.0000000000,-1.1880000000,0.0625000000,0.1250000000,-0.2500000000,-0.3125000000,-0.7300000000,0.0500000000,-0.1700000000,47.2228599000,8.8189446000,0.5400000000,-0.0036631800,-0.0008434407,0.1011824763,-6.8125000000,-3.5620000000,0.2500000000,-5.8118247625,0.4525633512,-0.4736903878
81987703.0000000000,0.0000000000,-1.1880000000,0.0625000000,-0.2500000000,-0.2500000000,-0.5000000000,-0.4600000000,0.1700000000,-0.1600000000,47.2228599000,8.8189446000,0.5500000000,-0.0091566224,0.0013640144,0.1700684535,-7.3750000000,-3.5620000000,0.4375000000,-7.1006845353,0.4525633512,-0.4736903878
82001780.0000000000,0.0000000000,-1.1880000000,0.0625000000,-0.3125000000,0.0625000000,-0.4375000000,0.7100000000,-0.3100000000,-0.1500000000,47.2228599000,8.8189446000,0.5500000000,0.0010791257,-0.0028890269,0.1530312019,-7.4687500000,-3.8745000000,0.3750000000,-6.9303120186,0.4525633512,-0.4736903878
82013786.0000000000,0.0000000000,-1.1880000000,0.0625000000,0.2500000000,0.0625000000,-0.2500000000,0.6200000000,-0.1400000000,-0.0500000000,47.2228599000,8.8189446000,0.5400000000,0.0086503755,-0.0044552298,0.0554910012,-6.6250000000,-3.8745000000,0.1875000000,-5.3549100122,0.4525633512,-0.4736903878
82024526.0000000000,0.0000000000,-1.1880000000,0.0625000000,0.1875000000,-0.1875000000,0.1250000000,-0.0700000000,0.1600000000,-0.2200000000,47.2228599000,8.8189446000,0.5300000000,0.0080099133,-0.0026477924,-0.0438677869,-6.7187500000,-3.6245000000,-0.1875000000,-3.7613221305,0.4525633512,-0.4736903878
82032529.0000000000,0.0000000000,-1.1880000000,0.0625000000,0.0000000000,-0.0000000000,0.5625000000,-0.5400000000,0.2500000000,-0.1900000000,47.2228599000,8.8189446000,0.5400000000,0.0037932315,-0.0005946188,0.0851667398,-7.0000000000,-3.8120000000,-0.6250000000,-5.6516673984,0.4525633512,-0.4736903878
82041162.0000000000,0.0000000000,-1.1880000000,0.0625000000,-0.0625000000,-0.0625000000,0.5000000000,0.1800000000,-0.2000000000,-0.0300000000,47.2228599000,8.8189446000,0.5300000000,0.0054466852,-0.0022484359,-0.0382708056,-7.0937500000,-3.7495000000,-0.5625000000,-3.8172919437,0.4525633512,-0.4736903878
82049164.0000000000,0.0000000000,-1.1880000000,0.0625000000,-0.0625000000,-0.0625000000,0.5000000000,-0.3300000000,0.1000000000,-0.1400000000,47.2228599000,8.8189446000,0.5400000000,0.0029197684,-0.0013878060,0.0905797664,-7.0937500000,-3.7495000000,-0.5625000000,-5.7057976642,0.4525633512,-0.4736903878
82058232.0000000000,0.0000000000,-1.1880000000,0.0625000000,-0.2500000000,-0.1250000000,0.1875000000,-0.3300000000,0.1000000000,-0.1400000000,47.2228599000,8.8189446000,0.5300000000,0.0000887491,-0.0004241275,-0.0286940854,-7.3750000000,-3.6870000000,-0.2500000000,-3.9130591459,0.4525633512,-0.4736903878
82068348.0000000000,0.0000000000,-1.1880000000,0.0625000000,-0.1875000000,-0.1250000000,-0.5625000000,-0.3600000000,0.0100000000,-0.1300000000,47.2228599000,8.8189446000,0.5300000000,-0.0033382151,-0.0002616518,-0.0256644394,-7.2812500000,-3.6870000000,0.5000000000,-3.9433556057,0.4525633512,-0.4736903878
82076352.0000000000,0.0000000000,-1.1880000000,0.0625000000,-0.1875000000,0.0625000000,-0.7500000000,0.0400000000,-0.3100000000,0.0600000000,47.2228599000,8.8189446000,0.5300000000,-0.0028460357,-0.0026695039,-0.0216025281,-7.2812500000,-3.8745000000,0.6875000000,-3.9839747187,0.4525633512,-0.4736903878
82085347.0000000000,0.0000000000,-1.1880000000,0.0625000000,-0.0625000000,0.1250000000,-0.3125000000,0.3200000000,0.0800000000,-0.1600000000,47.2228599000,8.8189446000,0.5300000000,0.0001914411,-0.0018787556,-0.0195426595,-7.0937500000,-3.9370000000,0.2500000000,-4.0045734049,0.4525633512,-0.4736903878
82093350.0000000000,0.0000000000,-1.1880000000,0.0625000000,0.0000000000,-0.0000000000,0.1875000000,0.2300000000,0.0200000000,-0.1300000000,47.2228599000,8.8189446000,0.5300000000,0.0021536309,-0.0016555554,-0.0174616260,-7.0000000000,-3.8120000000,-0.2500000000,-4.0253837396,0.4525633512,-0.4736903878
82101354.0000000000,0.0000000000,-1.1880000000,0.0625000000,-0.1875000000,0.0625000000,1.0625000000,-0.1700000000,0.0700000000,-0.1900000000,47.2228599000,8.8189446000,0.5300000000,0.0009268603,-0.0010383637,-0.0160208961,-7.2812500000,-3.8745000000,-1.1250000000,-4.0397910392,0.4525633512,-0.4736903878
82109447.0000000000,0.0000000000,-1.1880000000,0.0625000000,-0.1875000000,0.0625000000,1.0625000000,0.1700000000,-0.0600000000,-0.1200000000,47.2228599000,8.8189446000,0.5400000000,0.0024230597,-0.0014622342,0.1093457971,-7.2812500000,-3.8745000000,-1.1250000000,-5.8934579711,0.4525633512,-0.4736903878
82118486.0000000000,0.0000000000,-1.1880000000,0.0625000000,-0.0625000000,-0.3125000000,0.6875000000,0.1700000000,-0.0600000000,-0.1200000000,47.2228599000,8.8189446000,0.5400000000,0.0040802729,-0.0019326265,0.0986357462,-7.0937500000,-3.4995000000,-0.7500000000,-5.7863574616,0.4525633512,-0.4736903878
82126489.0000000000,0.0000000000,-1.1880000000,0.0625000000,-0.0625000000,-0.4375000000,0.3750000000,0.1000000000,0.0600000000,-0.1500000000,47.2228599000,8.8189446000,0.5500000000,0.0049735883,-0.0013919689,0.2137080276,-7.0937500000,-3.3745000000,-0.4375000000,-7.5370802763,0.4525633512,-0.4736903878
82134554.0000000000,0.0000000000,-1.1880000000,0.0625000000,-0.1875000000,-0.1250000000,-0.1250000000,-0.0900000000,-0.0200000000,-0.2600000000,47.2228599000,8.8189446000,0.5400000000,0.0043481808,-0.0014914269,0.0675288090,-7.2812500000,-3.6870000000,0.0625000000,-5.4752880902,0.4525633512,-0.4736903878
82142556.0000000000,0.0000000000,-1.1880000000,0.0625000000,-0.3750000000,-0.0625000000,-0.5000000000,0.0400000000,-0.2500000000,-0.2000000000,47.2228599000,8.8189446000,0.5400000000,0.0047633816,-0.0034110602,0.0603985538,-7.5625000000,-3.7495000000,0.4375000000,-5.4039855380,0.4525633512,-0.4736903878
82150559.0000000000,0.0000000000,-1.1880000000,0.0625000000,-0.3750000000,-0.0625000000,-0.5000000000,0.1900000000,0.1000000000,-0.0800000000,47.2228599000,8.8189446000,0.5400000000,0.0063629333,-0.0025386994,0.0548456009,-7.5625000000,-3.7495000000,0.4375000000,-5.3484560094,0.4525633512,-0.4736903878
82159209.0000000000,0.0000000000,-1.1880000000,0.0625000000,-0.0625000000,0.1250000000,-0.2500000000,0.1900000000,0.1000000000,-0.0800000000,47.2228599000,8.8189446000,0.5500000000,0.0080796556,-0.0016072941,0.1654942433,-7.0937500000,-3.9370000000,0.1875000000,-7.0549424326,0.4525633512,-0.4736903878
82169552.0000000000,0.0000000000,-1.1880000000,0.0625000000,-0.3125000000,-0.1875000000,0.1250000000,-0.3800000000,0.0300000000,-0.1900000000,47.2228599000,8.8189446000,0.5600000000,0.0042911107,-0.0012246445,0.2452338775,-7.4687500000,-3.6245000000,-0.1875000000,-8.4523387752,0.4525633512,-0.4736903878
82177736.0000000000,0.0000000000,-1.1880000000,0.0625000000,0.1250000000,0.1875000000,0.3750000000,0.0300000000,0.1500000000,-0.0500000000,47.2228599000,8.8189446000,0.5400000000,0.0046362931,0.0000499185,-0.0229499043,-6.8125000000,-3.9995000000,-0.4375000000,-4.5705009569,0.4525633512,-0.4736903878
82190145.0000000000,0.0000000000,-1.1880000000,0.0625000000,0.1250000000,-0.1875000000,0.5000000000,0.3400000000,-0.1000000000,-0.1900000000,47.2228599000,8.8189446000,0.5500000000,0.0089866995,-0.0011078192,0.0594582296,-6.8125000000,-3.6245000000,-0.5625000000,-5.9945822965,0.4525633512,-0.4736903878
82199220.0000000000,0.0000000000,-1.1880000000,0.0625000000,-0.0625000000,-0.1875000000,0.2500000000,0.3400000000,-0.1000000000,-0.1900000000,47.2228599000,8.8189446000,0.5400000000,0.0121122955,-0.0019430574,-0.0570267328,-7.0937500000,-3.6245000000,-0.3125000000,-4.2297326722,0.4525633512,-0.4736903878
82213275.0000000000,0.0000000000,-1.1880000000,0.0625000000,-0.1250000000,0.1875000000,-0.2500000000,-0.2800000000,-0.1900000000,-0.0100000000,47.2228599000,8.8189446000,0.5500000000,0.0083441952,-0.0044866685,0.0215655690,-7.1875000000,-3.9995000000,0.1875000000,-5.6156556897,0.4525633512,-0.4736903878
82223728.0000000000,0.0000000000,-1.1880000000,0.0625000000,-0.0625000000,0.0625000000,0.0625000000,0.3400000000,-0.1900000000,-0.2700000000,47.2228599000,8.8189446000,0.5400000000,0.0119644707,-0.0063479900,-0.0774088063,-7.0937500000,-3.8745000000,-0.1250000000,-4.0259119370,0.4525633512,-0.4736903878
82231730.0000000000,0.0000000000,-1.1880000000,0.0625000000,-0.0625000000,0.0625000000,0.0625000000,0.0200000000,-0.0300000000,-0.0700000000,47.2228599000,8.8189446000,0.5400000000,0.0121450690,-0.0064762220,-0.0691090660,-7.0937500000,-3.8745000000,-0.1250000000,-4.1089093401,0.4525633512,-0.4736903878
82244434.0000000000,0.0000000000,-1.1880000000,0.0625000000,-0.1875000000,-0.1250000000,0.1875000000,0.2100000000,-0.0500000000,-0.2500000000,47.2228599000,8.8189446000,0.5400000000,0.0148899075,-0.0069673614,-0.0633689600,-7.2812500000,-3.6870000000,-0.2500000000,-4.1663103997,0.4525633512,-0.4736903878
82254336.0000000000,0.0000000000,-1.1880000000,0.0625000000,0.0625000000,0.1250000000,0.0625000000,0.7900000000,0.2100000000,-0.3800000000,47.2228599000,8.8189446000,0.5400000000,0.0226608360,-0.0047822047,-0.0591031663,-6.9062500000,-3.9370000000,-0.1250000000,-4.2089683365,0.4525633512,-0.4736903878
82262339.0000000000,0.0000000000,-1.1880000000,0.0625000000,-0.1250000000,-0.1250000000,0.2500000000,-0.2000000000,0.0100000000,-0.1500000000,47.2228599000,8.8189446000,0.5200000000,0.0209914548,-0.0046091998,-0.3031164213,-7.1875000000,-3.6870000000,-0.3125000000,-0.5688357866,0.4525633512,-0.4736903878
82273318.0000000000,0.0000000000,-1.1880000000,0.0625000000,0.2500000000,0.1250000000,0.1250000000,0.7400000000,0.4500000000,-0.2300000000,47.2228599000,8.8189446000,0.5300000000,0.0290193145,0.0003910782,-0.1825360052,-6.6250000000,-3.9370000000,-0.1875000000,-2.3746399475,0.4525633512,-0.4736903878
82281321.0000000000,0.0000000000,-1.1880000000,0.0625000000,0.2500000000,0.1250000000,0.1250000000,0.5500000000,0.2200000000,-0.1600000000,47.2228599000,8.8189446000,0.5300000000,0.0332285760,0.0021761740,-0.1643717182,-6.6250000000,-3.9370000000,-0.1875000000,-2.5562828180,0.4525633512,-0.4736903878
82294414.0000000000,0.0000000000,-1.1880000000,0.0625000000,0.3125000000,0.0625000000,0.1250000000,0.4900000000,0.0500000000,-0.2600000000,47.2228599000,8.8189446000,0.5300000000,0.0394797256,0.0028776958,-0.1492590343,-6.5312500000,-3.8745000000,-0.1875000000,-2.7074096574,0.4525633512,-0.4736903878
82305634.0000000000,0.0000000000,-1.1880000000,0.0625000000,-0.3750000000,0.0625000000,-0.1875000000,1.0400000000,-0.4200000000,-0.2300000000,47.2228599000,8.8189446000,0.5300000000,0.0508358700,-0.0017519320,-0.1351652060,-7.5625000000,-3.8745000000,0.1250000000,-2.8483479396,0.4525633512,-0.4736903878
82314319.0000000000,0.0000000000,-1.1880000000,0.0625000000,-1.0000000000,-0.1250000000,0.0625000000,0.1100000000,-0.8100000000,-0.0400000000,47.2228599000,8.8189446000,0.5400000000,0.0514272147,-0.0086490449,-0.0056665823,-8.5000000000,-3.6870000000,-0.1250000000,-4.7433341775,0.4525633512,-0.4736903878
82322321.0000000000,0.0000000000,-1.1880000000,0.0625000000,-1.0000000000,-0.1250000000,0.0625000000,-0.6000000000,-0.4300000000,0.1000000000,47.2228599000,8.8189446000,0.5300000000,0.0463015580,-0.0119230583,-0.1282855162,-8.5000000000,-3.6870000000,-0.1250000000,-2.9171448384,0.4525633512,-0.4736903878
82335184.0000000000,0.0625000000,-1.1880000000,0.0625000000,-0.4375000000,-0.2500000000,0.3750000000,-2.0900000000,0.3600000000,-0.1000000000,47.2228599000,8.8189446000,0.5200000000,0.0194516543,-0.0071455952,-0.1926482754,-7.7437500000,-3.5620000000,-0.4375000000,-1.0735172457,0.4525633512,-0.4736903878
82343189.0000000000,0.0625000000,-1.1880000000,0.0625000000,-0.5000000000,-0.3125000000,0.1250000000,-1.0300000000,0.8400000000,-0.1500000000,47.2228599000,8.8189446000,0.5300000000,0.0112362959,-0.0003712165,-0.0484788149,-7.8375000000,-3.4995000000,-0.1875000000,-3.1152118511,0.4525633512,-0.4736903878
82351192.0000000000,0.0625000000,-1.1880000000,0.0625000000,-0.5000000000,-0.3125000000,0.1250000000,0.4000000000,0.9300000000,-0.3800000000,47.2228599000,8.8189446000,0.5400000000,0.0144349421,0.0070468110,0.0796483017,-7.8375000000,-3.4995000000,-0.1875000000,-4.9964830169,0.4525633512,-0.4736903878
82361683.0000000000,0.0625000000,-1.1880000000,0.0625000000,0.2500000000,-0.2500000000,-0.3125000000,0.3100000000,-0.8800000000,-0.0700000000,47.2228599000,8.8189446000,0.5300000000,0.0176961916,-0.0021031770,-0.0229036350,-6.7125000000,-3.5620000000,0.2500000000,-3.3709636504,0.4525633512,-0.4736903878
82370602.0000000000,0.0625000000,-1.1880000000,0.0625000000,0.1250000000,-0.0625000000,-0.1250000000,0.3100000000,-0.8800000000,-0.0700000000,47.2228599000,8.8189446000,0.5300000000,0.0204145243,-0.0098011652,-0.0199903685,-6.9000000000,-3.7495000000,0.0625000000,-3.4000963149,0.4525633512,-0.4736903878
82379358.0000000000,0.0625000000,-1.1880000000,0.0625000000,0.3125000000,-0.0000000000,-0.1250000000,-3.0900000000,0.5400000000,0.1200000000,47.2228599000,8.8189446000,0.5400000000,-0.0064199354,-0.0049719190,0.0983248640,-6.6187500000,-3.8120000000,0.0625000000,-5.1832486402,0.4525633512,-0.4736903878
82389460.0000000000,0.0625000000,-1.1880000000,0.0625000000,0.4375000000,-0.0625000000,0.0000000000,0.8800000000,0.8500000000,-0.1900000000,47.2228599000,8.8189446000,0.5400000000,0.0026241439,0.0036366389,0.0881068853,-6.4312500000,-3.7495000000,-0.0625000000,-5.0810688530,0.4525633512,-0.4736903878
82402081.0000000000,0.0625000000,-1.1880000000,0.0625000000,-0.1250000000,-0.0625000000,0.5000000000,-0.8900000000,1.1700000000,-0.2600000000,47.2228599000,8.8189446000,0.5300000000,-0.0082988039,0.0182916466,-0.0012135679,-7.2750000000,-3.7495000000,-0.5625000000,-3.5878643209,0.4525633512,-0.4736903878
82410367.0000000000,0.0625000000,-1.1880000000,0.0625000000,-0.4375000000,-0.0625000000,0.8750000000,-0.8900000000,1.1700000000,-0.2600000000,47.2228599000,8.8189446000,0.5200000000,-0.0153697743,0.0277539821,-0.1226159165,-7.7437500000,-3.7495000000,-0.9375000000,-1.7738408351,0.4525633512,-0.4736903878
82424521.0000000000,0.0625000000,-1.1880000000,0.0625000000,0.1875000000,-0.0625000000,0.3125000000,-3.5200000000,0.7200000000,0.0600000000,47.2228599000,8.8189446000,0.5300000000,-0.0642891127,0.0376466858,-0.0370583855,-6.8062500000,-3.7495000000,-0.3750000000,-3.2294161449,0.4525633512,-0.4736903878
82436176.0000000000,0.0625000000,-1.1880000000,0.0625000000,0.2500000000,-0.1250000000,-0.4375000000,-0.6500000000,-0.1400000000,-0.1800000000,47.2228599000,8.8189446000,0.5300000000,-0.0709396758,0.0357217589,-0.0336924068,-6.7125000000,-3.6870000000,0.3750000000,-3.2630759324,0.4525633512,-0.4736903878
82446912.0000000000,0.0625000000,-1.1880000000,0.0625000000,-0.1875000000,-0.5000000000,-0.4375000000,-0.1000000000,0.4900000000,-0.1000000000,47.2228599000,8.8189446000,0.5400000000,-0.0711028904,0.0406342211,0.0632813245,-7.3687500000,-3.3120000000,0.3750000000,-4.8328132451,0.4525633512,-0.4736903878
82454916.0000000000,0.0625000000,-1.1880000000,0.0625000000,0.1875000000,-0.1875000000,-0.2500000000,0.5300000000,-0.6700000000,-0.3400000000,47.2228599000,8.8189446000,0.5300000000,-0.0660503238,0.0349647846,-0.0693703118,-6.8062500000,-3.6245000000,0.1875000000,-2.9062968819,0.4525633512,-0.4736903878
82466702.0000000000,0.0625000000,-1.1880000000,0.0625000000,0.1875000000,-0.3125000000,0.4375000000,-0.8600000000,0.6100000000,0.1400000000,47.2228599000,8.8189446000,0.5400000000,-0.0752155613,0.0418003774,0.0254638356,-6.8062500000,-3.4995000000,-0.5000000000,-4.4546383557,0.4525633512,-0.4736903878
82476237.0000000000,0.0625000000,-1.1880000000,0.0625000000,0.3750000000,0.1875000000,0.6250000000,0.2300000000,-0.3900000000,0.2000000000,47.2228599000,8.8189446000,0.5300000000,-0.0721233164,0.0377556601,-0.0789763884,-6.5250000000,-3.9995000000,-0.6875000000,-2.8102361162,0.4525633512,-0.4736903878
82484241.0000000000,0.0625000000,-1.1880000000,0.0625000000,0.0625000000,-0.0000000000,0.2500000000,-1.3500000000,1.1000000000,-0.4300000000,47.2228599000,8.8189446000,0.5400000000,-0.0819575904,0.0461404185,0.0518244851,-6.9937500000,-3.8120000000,-0.3125000000,-4.7182448505,0.4525633512,-0.4736903878
82496227.0000000000,0.0625000000,-1.1880000000,0.0625000000,0.0000000000,0.1875000000,0.5000000000,2.9300000000,-1.2600000000,-0.0800000000,47.2228599000,8.8189446000,0.5400000000,-0.0461578204,0.0307965015,0.0473712648,-7.0875000000,-3.9995000000,-0.5625000000,-4.6737126479,0.4525633512,-0.4736903878
82504749.0000000000,0.0625000000,-1.1880000000,0.0625000000,0.1875000000,-0.0000000000,-0.0625000000,-3.3500000000,1.4900000000,-0.2100000000,47.2228599000,8.8189446000,0.5200000000,-0.0738084368,0.0431082720,-0.1925311505,-6.8062500000,-3.8120000000,0.0000000000,-1.0746884952,0.4525633512,-0.4736903878
82512754.0000000000,0.0625000000,-1.1880000000,0.0625000000,0.1875000000,-0.0000000000,-0.0625000000,1.5600000000,-1.1000000000,0.0900000000,47.2228599000,8.8189446000,0.5300000000,-0.0605655738,0.0340057090,-0.0466443224,-6.8062500000,-3.8120000000,0.0000000000,-3.1335567757,0.4525633512,-0.4736903878
82522059.0000000000,0.0625000000,-1.1880000000,0.0625000000,0.0000000000,0.0625000000,0.3125000000,1.5600000000,-1.1000000000,0.0900000000,47.2228599000,8.8189446000,0.5200000000,-0.0454243822,0.0235859362,-0.1474592116,-7.0875000000,-3.8745000000,-0.3750000000,-1.5254078838,0.4525633512,-0.4736903878
82530625.0000000000,0.0625000000,-1.1880000000,0.0625000000,-0.1250000000,-0.1875000000,0.3750000000,-3.0400000000,1.9000000000,-0.4900000000,47.2228599000,8.8189446000,0.5200000000,-0.0705985739,0.0395119088,-0.1353529890,-7.2750000000,-3.6245000000,-0.4375000000,-1.6464701098,0.4525633512,-0.4736903878
82540691.0000000000,0.0625000000,-1.1880000000,0.0625000000,-0.1875000000,-0.4375000000,0.3125000000,1.5200000000,-0.5000000000,-0.1100000000,47.2228599000,8.8189446000,0.5400000000,-0.0545668918,0.0341919187,0.0772115982,-7.3687500000,-3.3745000000,-0.3750000000,-4.9721159820,0.4525633512,-0.4736903878
82555120.0000000000,0.0625000000,-1.1880000000,0.0625000000,-0.3750000000,0.1250000000,-0.3125000000,-0.9600000000,1.3500000000,-0.6100000000,47.2228599000,8.8189446000,0.5300000000,-0.0674788481,0.0532172093,-0.0058192064,-7.6500000000,-3.9370000000,0.2500000000,-3.5418079361,0.4525633512,-0.4736903878
82567217.0000000000,0.0625000000,-1.1880000000,0.0625000000,-0.6250000000,-0.0625000000,-0.3750000000,1.3100000000,-1.0700000000,-0.1800000000,47.2228599000,8.8189446000,0.5200000000,-0.0509010894,0.0399401461,-0.0882551579,-8.0250000000,-3.7495000000,0.3125000000,-2.1174484214,0.4525633512,-0.4736903878
82575220.0000000000,0.0625000000,-1.1880000000,0.0625000000,-0.3750000000,0.1250000000,0.3750000000,1.3400000000,-1.1100000000,0.1100000000,47.2228599000,8.8189446000,0.5300000000,-0.0396334776,0.0307922012,0.0473789160,-7.6500000000,-3.9370000000,-0.4375000000,-4.0737891602,0.4525633512,-0.4736903878
82583223.0000000000,0.0625000000,-1.1880000000,0.0625000000,-0.3750000000,0.1250000000,0.3750000000,-0.2400000000,0.3700000000,-0.0400000000,47.2228599000,8.8189446000,0.5200000000,-0.0409968344,0.0334617313,-0.0815371076,-7.6500000000,-3.9370000000,-0.4375000000,-2.1846289237,0.4525633512,-0.4736903878
82591543.0000000000,0.0625000000,-1.1880000000,0.0625000000,-0.6250000000,0.2500000000,0.6875000000,-0.2400000000,0.3700000000,-0.0400000000,47.2228599000,8.8189446000,0.5300000000,-0.0424162594,0.0362225034,0.0476146196,-8.0250000000,-4.0620000000,-0.7500000000,-3.4761461962,0.4525633512,-0.4736903878
82600942.0000000000,0.0625000000,-1.1880000000,0.0625000000,-0.1875000000,-0.2500000000,0.7500000000,-1.4600000000,1.0600000000,-0.4400000000,47.2228599000,8.8189446000,0.5300000000,-0.0554108517,0.0457775580,0.0403797168,-7.3687500000,-3.5620000000,-0.8125000000,-3.4037971682,0.4525633512,-0.4736903878
82613005.0000000000,0.0625000000,-1.1880000000,0.0625000000,-0.4375000000,-0.1875000000,0.3750000000,0.0900000000,0.1500000000,-0.1800000000,47.2228599000,8.8189446000,0.5200000000,-0.0535681614,0.0471804037,-0.0469081302,-7.7437500000,-3.6245000000,-0.4375000000,-1.9309186985,0.4525633512,-0.4736903878
82621697.0000000000,0.0625000000,-1.1880000000,0.0625000000,-0.6250000000,-0.5000000000,0.2500000000,0.0900000000,0.1500000000,-0.1800000000,47.2228599000,8.8189446000,0.5300000000,-0.0521039917,0.0480492711,0.0725775444,-8.0250000000,-3.3120000000,-0.3125000000,-3.7257754444,0.4525633512,-0.4736903878
82634484.0000000000,0.0625000000,-1.1880000000,0.0625000000,0.6250000000,-0.0625000000,-0.1250000000,0.2200000000,-0.3000000000,-0.0700000000,47.2228599000,8.8189446000,0.5300000000,-0.0485713447,0.0438444624,0.0662128341,-6.1500000000,-3.7495000000,0.0625000000,-3.6621283407,0.4525633512,-0.4736903878
82647035.0000000000,0.0625000000,-1.1880000000,0.0625000000,0.7500000000,0.3125000000,-0.0625000000,-0.3700000000,0.5500000000,-0.1500000000,47.2228599000,8.8189446000,0.5300000000,-0.0524606463,0.0503121051,0.0595644405,-5.9625000000,-4.1245000000,0.0000000000,-3.5956444050,0.4525633512,-0.4736903878
82655040.0000000000,0.0625000000,-1.1880000000,0.0625000000,0.1250000000,0.2500000000,-0.1875000000,-0.1000000000,-0.0300000000,-0.1700000000,47.2228599000,8.8189446000,0.5500000000,-0.0525866783,0.0496172003,0.3032904632,-6.9000000000,-4.0620000000,0.1250000000,-7.2329046325,0.4525633512,-0.4736903878
82663044.0000000000,0.0625000000,-1.1880000000,0.0625000000,0.1250000000,0.2500000000,-0.1875000000,0.1700000000,0.5800000000,-0.2100000000,47.2228599000,8.8189446000,0.5500000000,-0.0505718994,0.0537628840,0.2725119123,-6.9000000000,-4.0620000000,0.1250000000,-6.9251191228,0.4525633512,-0.4736903878
82672245.0000000000,0.0625000000,-1.1880000000,0.0625000000,-0.1250000000,-0.2500000000,-0.5000000000,0.1700000000,0.5800000000,-0.2100000000,47.2228599000,8.8189446000,0.5400000000,-0.0483546012,0.0585613015,0.1360601542,-7.2750000000,-3.5620000000,0.4375000000,-4.9606015418,0.4525633512,-0.4736903878
82684043.0000000000,0.0625000000,-1.1880000000,0.0625000000,0.6875000000,-0.1875000000,0.0000000000,0.8100000000,-1.2000000000,0.1600000000,47.2228599000,8.8189446000,0.5300000000,-0.0382011666,0.0440274086,0.0409601682,-6.0562500000,-3.6245000000,-0.0625000000,-3.4096016825,0.4525633512,-0.4736903878
82695886.0000000000,0.0625000000,-1.1880000000,0.1250000000,0.0625000000,-0.1250000000,1.5000000000,-0.6100000000,-0.5000000000,0.1500000000,47.2228599000,8.8189446000,0.5400000000,-0.0447612728,0.0377928520,0.1244742452,-6.9937500000,-3.6870000000,-1.6250000000,-4.8447424522,0.4525633512,-0.4736903878
82703890.0000000000,0.0625000000,-1.1880000000,0.1250000000,0.0625000000,-0.1250000000,1.5000000000,-0.6300000000,1.7300000000,-0.5200000000,47.2228599000,8.8189446000,0.5500000000,-0.0491639160,0.0511693333,0.2342817313,-6.9937500000,-3.6870000000,-1.6250000000,-6.5428173130,0.4525633512,-0.4736903878
82712394.0000000000,0.0625000000,-1.1880000000,0.1250000000,0.1250000000,-0.3125000000,1.1875000000,-0.6300000000,1.7300000000,-0.5200000000,47.2228599000,8.8189446000,0.5400000000,-0.0538255223,0.0652712707,0.0904116360,-6.9000000000,-3.4995000000,-1.3125000000,-4.5041163598,0.4525633512,-0.4736903878
82722867.0000000000,0.0625000000,-1.1880000000,0.1250000000,0.2500000000,-0.6250000000,0.7500000000,0.5200000000,-1.1600000000,-0.1300000000,47.2228599000,8.8189446000,0.5300000000,-0.0477101746,0.0526515008,-0.0139472599,-6.7125000000,-3.1870000000,-0.8750000000,-2.8605274015,0.4525633512,-0.4736903878
82731477.0000000000,0.0000000000,-1.1880000000,0.1250000000,1.2500000000,1.0000000000,0.3125000000,-0.1400000000,-0.6100000000,0.0500000000,47.2228599000,8.8189446000,0.5300000000,-0.0482738411,0.0469748454,-0.0110213315,-5.1250000000,-4.8120000000,-0.4375000000,-2.8897866853,0.4525633512,-0.4736903878
82745117.0000000000,0.0625000000,-1.1880000000,0.1250000000,0.0625000000,-0.0625000000,-0.1875000000,0.9500000000,-0.5500000000,-0.3600000000,47.2228599000,8.8189446000,0.5200000000,-0.0347209682,0.0391564378,-0.0858404037,-6.9937500000,-3.7495000000,0.0625000000,-1.5415959629,0.4525633512,-0.4736903878
82753121.0000000000,0.0625000000,-1.1880000000,0.1250000000,0.0625000000,-0.0625000000,-0.1875000000,0.1000000000,2.5300000000,-0.4800000000,47.2228599000,8.8189446000,0.5300000000,-0.0334395237,0.0588584512,0.0452866913,-6.9937500000,-3.7495000000,0.0625000000,-3.4528669125,0.4525633512,-0.4736903878
82766603.0000000000,0.0625000000,-1.1880000000,0.1250000000,-0.3750000000,-0.1875000000,0.3125000000,0.8400000000,-1.8100000000,0.1000000000,47.2228599000,8.8189446000,0.5500000000,-0.0216545827,0.0341888845,0.1921082937,-7.6500000000,-3.6245000000,-0.4375000000,-6.1210829375,0.4525633512,-0.4736903878
82777286.0000000000,0.0625000000,-1.1880000000,0.1250000000,-0.6875000000,-0.6875000000,0.5000000000,-2.1500000000,0.5800000000,-0.1800000000,47.2228599000,8.8189446000,0.5200000000,-0.0439874889,0.0400425161,-0.1082340463,-8.1187500000,-3.1245000000,-0.6250000000,-0.7176595371,0.4525633512,-0.4736903878
82785289.0000000000,0.0625000000,-1.1880000000,0.1250000000,-1.6250000000,-0.3750000000,0.3750000000,2.4700000000,0.2900000000,-0.1300000000,47.2228599000,8.8189446000,0.5200000000,-0.0238360570,0.0419857054,-0.0972838741,-9.5250000000,-3.4370000000,-0.5000000000,-0.8271612586,0.4525633512,-0.4736903878
82793293.0000000000,0.0625000000,-1.1880000000,0.1250000000,-1.6250000000,-0.3750000000,0.3750000000,1.8300000000,1.6600000000,-0.5300000000,47.2228599000,8.8189446000,0.5400000000,-0.0089550107,0.0547655810,0.1595649191,-9.5250000000,-3.4370000000,-0.5000000000,-4.5956491910,0.4525633512,-0.4736903878
82805192.0000000000,0.0625000000,-1.1880000000,0.1250000000,0.0625000000,0.4375000000,0.1250000000,-1.5400000000,-1.4700000000,0.0000000000,47.2228599000,8.8189446000,0.5400000000,-0.0267958138,0.0369696345,0.1451890904,-6.9937500000,-4.2495000000,-0.2500000000,-4.4518909035,0.4525633512,-0.4736903878
82813273.0000000000,0.0625000000,-1.1880000000,0.1250000000,0.0625000000,0.4375000000,0.1250000000,1.5100000000,1.9700000000,-0.6400000000,47.2228599000,8.8189446000,0.5600000000,-0.0143043654,0.0524067136,0.3745831274,-6.9937500000,-4.2495000000,-0.2500000000,-7.9458312737,0.4525633512,-0.4736903878
82826573.0000000000,0.0625000000,-1.1880000000,0.1250000000,-0.3125000000,-0.1875000000,1.3125000000,-1.5300000000,-1.6400000000,0.0000000000,47.2228599000,8.8189446000,0.5300000000,-0.0340711424,0.0303651350,0.1133276769,-7.5562500000,-3.6245000000,-1.4375000000,-3.5332767686,0.4525633512,-0.4736903878
82834576.0000000000,0.0625000000,-1.1880000000,0.1875000000,-1.3750000000,-0.5625000000,1.1875000000,-1.5300000000,-1.6400000000,0.0000000000,47.2228599000,8.8189446000,0.5300000000,-0.0457107540,0.0171137661,0.1030580277,-9.1500000000,-3.2495000000,-1.3750000000,-3.4305802769,0.4525633512,-0.4736903878
82843557.0000000000,0.0625000000,-1.1880000000,0.1875000000,-0.1875000000,-0.1250000000,0.7500000000,-1.5500000000,1.5100000000,-0.3200000000,47.2228599000,8.8189446000,0.5400000000,-0.0588758386,0.0304198942,0.2027049082,-7.3687500000,-3.6870000000,-0.9375000000,-5.0270490822,0.4525633512,-0.4736903878
82852204.0000000000,0.0625000000,-1.1880000000,0.1875000000,-1.3125000000,-0.0625000000,-0.7500000000,-1.5500000000,1.5100000000,-0.3200000000,47.2228599000,8.8189446000,0.5500000000,-0.0714026682,0.0430917467,0.2967397941,-9.0562500000,-3.7495000000,0.5625000000,-6.5673979410,0.4525633512,-0.4736903878
82862066.0000000000,0.0625000000,-1.1880000000,0.1250000000,0.0000000000,0.0625000000,-1.3750000000,1.4200000000,-1.7700000000,0.3300000000,47.2228599000,8.8189446000,0.5300000000,-0.0566498775,0.0254362742,0.0685062758,-7.0875000000,-3.8745000000,1.2500000000,-3.0850627580,0.4525633512,-0.4736903878
82874071.0000000000,0.1250000000,-1.1880000000,0.1250000000,-1.8750000000,-0.0625000000,-1.5625000000,-0.8000000000,1.6500000000,-0.5500000000,47.2228599000,8.8189446000,0.5400000000,-0.0653785981,0.0448610117,0.1406065430,-9.9875000000,-3.7495000000,1.4375000000,-4.4060654299,0.4525633512,-0.4736903878
82882073.0000000000,0.1250000000,-1.1880000000,0.1250000000,-1.3750000000,0.0625000000,-1.3125000000,0.5600000000,2.3100000000,-0.5100000000,47.2228599000,8.8189446000,0.5300000000,-0.0601466999,0.0627581228,-0.0010328014,-9.2375000000,-3.8745000000,1.1875000000,-2.3896719856,0.4525633512,-0.4736903878
82890078.0000000000,0.1250000000,-1.1880000000,0.1250000000,-1.3125000000,-0.3125000000,-0.1875000000,-0.5700000000,-1.8500000000,0.4000000000,47.2228599000,8.8189446000,0.5300000000,-0.0639205977,0.0475153488,0.0030156629,-9.1437500000,-3.4995000000,0.0625000000,-2.4301566291,0.4525633512,-0.4736903878
82898794.0000000000,0.1250000000,-1.1880000000,0.1250000000,-0.8125000000,-0.0000000000,1.8750000000,2.2400000000,1.8200000000,-0.6800000000,47.2228599000,8.8189446000,0.5300000000,-0.0437983339,0.0627947314,-0.0014622619,-8.3937500000,-3.8120000000,-2.0000000000,-1.7853773806,0.4525633512,-0.4736903878
82909994.0000000000,0.1250000000,-1.1880000000,0.1875000000,-1.6250000000,-0.4375000000,2.4375000000,-4.5200000000,-1.4500000000,0.0400000000,47.2228599000,8.8189446000,0.5200000000,-0.0932796354,0.0461534945,-0.0887107420,-9.6125000000,-3.3745000000,-2.6250000000,-0.3128925796,0.4525633512,-0.4736903878
82917997.0000000000,0.1875000000,-1.1880000000,0.1875000000,-1.6875000000,-0.1875000000,1.8750000000,-2.7500000000,-1.2500000000,0.0400000000,47.2228600000,8.8189443000,0.5500000000,-0.0723107188,0.0219400456,0.2963709864,-9.7937500000,-3.6245000000,-2.0625000000,-5.9637098640,0.4859218292,-0.4848098798
82957031.0000000000,0.2500000000,-1.1880000000,0.1875000000,-2.2500000000,-0.6250000000,-1.5000000000,0.2800000000,-1.6500000000,0.5500000000,47.2228600000,8.8189443000,0.5300000000,-0.0600756653,-0.0418172606,0.2400036115,-10.7250000000,-3.1870000000,1.3125000000,-4.2000361153,0.4859218292,-0.4848098798
82965033.0000000000,0.2500000000,-1.1880000000,0.1250000000,-2.2500000000,-0.6250000000,-1.5000000000,2.3300000000,1.5600000000,-0.3700000000,47.2228600000,8.8189443000,0.5500000000,-0.0408748918,-0.0289948517,0.4643390857,-10.7250000000,-3.1870000000,1.3750000000,-7.6433908568,0.4859218292,-0.4848098798
82975692.0000000000,0.3125000000,-1.1880000000,0.1250000000,-2.1875000000,-1.0000000000,-1.3125000000,2.3300000000,1.5600000000,-0.3700000000,47.2228600000,8.8189443000,0.5400000000,-0.0156901395,-0.0121819397,0.3219542404,-10.7187500000,-2.8120000000,1.1875000000,-5.6195424039,0.4859218292,-0.4848098798
82983694.0000000000,0.3125000000,-1.1880000000,0.1250000000,-1.6875000000,-0.7500000000,-0.1250000000,-3.2100000000,-0.4400000000,0.1600000000,47.2228600000,8.8189443000,0.5200000000,-0.0408209904,-0.0154998440,0.0420365744,-9.9687500000,-3.0620000000,0.0000000000,-1.6203657441,0.4859218292,-0.4848098798
82994943.0000000000,0.3125000000,-1.2505000000,0.1250000000,-2.8750000000,-0.8125000000,1.0000000000,-1.3100000000,-1.7400000000,-0.1100000000,47.2228600000,8.8189443000,0.5400000000,-0.0548022651,-0.0346577812,0.2160071648,-11.7500000000,-2.9370000000,-1.1250000000,-4.5600716478,0.4859218292,-0.4848098798
83008055.0000000000,0.3750000000,-1.2505000000,0.1875000000,-2.3750000000,-0.7500000000,4.3125000000,2.2200000000,2.3800000000,-1.1300000000,47.2228600000,8.8189443000,0.5200000000,-0.0252043311,-0.0033414199,0.0302813107,-11.0875000000,-2.9995000000,-4.5000000000,-1.5028131066,0.4859218292,-0.4848098798
83018704.0000000000,0.4375000000,-1.2505000000,0.2500000000,-3.5000000000,-0.2500000000,4.5000000000,-1.4000000000,-1.8900000000,-0.0400000000,47.2228600000,8.8189443000,0.5300000000,-0.0395230909,-0.0231722030,0.1221899598,-12.8625000000,-3.4995000000,-4.7500000000,-3.0218995979,0.4859218292,-0.4848098798
83026708.0000000000,0.4375000000,-1.2505000000,0.2500000000,-3.5000000000,-0.2500000000,4.5000000000,-1.4000000000,-1.8900000000,-0.0400000000,47.2228600000,8.8189443000,0.5200000000,-0.0500795651,-0.0378708064,-0.0141914601,-12.8625000000,-3.4995000000,-4.7500000000,-0.4580853993,0.4859218292,-0.4848098798
83038169.0000000000,0.5000000000,-1.2505000000,0.3125000000,-3.1250000000,-0.8750000000,0.0000000000,-1.6600000000,0.6500000000,-0.2300000000,47.2228600000,8.8189443000,0.5300000000,-0.0682106764,-0.0300511358,0.0736301594,-12.3875000000,-2.8745000000,-0.3125000000,-1.9363015943,0.4859218292,-0.4848098798
83046173.0000000000,0.5000000000,-1.2505000000,0.3125000000,-4.8125000000,-0.7500000000,-2.5625000000,2.4400000000,-0.2200000000,0.1400000000,47.2228600000,8.8189443000,0.5400000000,-0.0480522684,-0.0314479367,0.1932764301,-14.9187500000,-2.9995000000,2.2500000000,-3.7327643009,0.4859218292,-0.4848098798
83055467.0000000000,0.5000000000,-1.2505000000,0.2500000000,-4.8125000000,-0.7500000000,-2.5625000000,-1.3200000000,-1.0600000000,0.1200000000,47.2228600000,8.8189443000,0.5400000000,-0.0595524459,-0.0408332147,0.1761871540,-14.9187500000,-2.9995000000,2.3125000000,-3.5618715404,0.4859218292,-0.4848098798
83063943.0000000000,0.5625000000,-1.2505000000,0.2500000000,-5.4375000000,-0.1250000000,-4.3125000000,-1.3200000000,-1.0600000000,0.1200000000,47.2228600000,8.8189443000,0.5300000000,-0.0698831551,-0.0492709278,0.0426296191,-15.9437500000,-3.6245000000,4.0625000000,-1.6262961914,0.4859218292,-0.4848098798
83078339.0000000000,0.6250000000,-1.2505000000,0.1875000000,-2.6875000000,0.6250000000,-1.5625000000,3.5400000000,0.7800000000,-0.0800000000,47.2228600000,8.8189443000,0.5400000000,-0.0184769904,-0.0375789655,0.1087062498,-11.9062500000,-4.3745000000,1.3750000000,-2.8870624980,0.4859218292,-0.4848098798
83089930.0000000000,0.6250000000,-1.2505000000,0.1875000000,-1.6250000000,0.2500000000,1.1875000000,-2.3000000000,-1.6700000000,0.0600000000,47.2228600000,8.8189443000,0.5500000000,-0.0444795234,-0.0563000206,0.1862751204,-10.3125000000,-3.9995000000,-1.3750000000,-4.2627512040,0.4859218292,-0.4848098798
83101450.0000000000,0.6875000000,-1.2505000000,0.1875000000,-0.7500000000,-0.0000000000,2.4375000000,3.0600000000,1.0700000000,-0.1800000000,47.2228600000,8.8189443000,0.5200000000,-0.0089318942,-0.0434677366,-0.0931049815,-9.0875000000,-3.7495000000,-2.6250000000,0.3310498150,0.4859218292,-0.4848098798
83110275.0000000000,0.6875000000,-1.2505000000,0.2500000000,-0.5000000000,0.0625000000,2.0000000000,-4.2900000000,-0.7100000000,-0.1700000000,47.2228600000,8.8189443000,0.5300000000,-0.0461668450,-0.0491854785,0.0293420522,-8.7125000000,-3.8120000000,-2.2500000000,-1.4934205224,0.4859218292,-0.4848098798
83119528.0000000000,0.6875000000,-1.2505000000,0.2500000000,-1.3125000000,0.6250000000,0.6875000000,-1.6900000000,1.4800000000,-0.7200000000,47.2228600000,8.8189443000,0.5200000000,-0.0610223984,-0.0350829974,-0.0864319859,-9.9312500000,-4.3745000000,-0.9375000000,0.8643198585,0.4859218292,-0.4848098798
83127532.0000000000,0.6875000000,-1.2505000000,0.2500000000,-1.3125000000,0.6250000000,0.6875000000,-0.5200000000,-1.7000000000,0.2100000000,47.2228600000,8.8189443000,0.5400000000,-0.0643907947,-0.0481569405,0.1746622826,-9.9312500000,-4.3745000000,-0.9375000000,-2.9466228256,0.4859218292,-0.4848098798
83137132.0000000000,0.6875000000,-1.2505000000,0.2500000000,-2.1250000000,0.3750000000,-0.7500000000,1.9400000000,2.0100000000,-0.5800000000,47.2228600000,8.8189443000,0.5300000000,-0.0451390052,-0.0285172079,0.0492934516,-11.1500000000,-4.1245000000,0.5000000000,-1.0929345164,0.4859218292,-0.4848098798
83145135.0000000000,0.7500000000,-1.2505000000,0.2500000000,-2.7500000000,-0.0000000000,-1.5625000000,-2.0100000000,-1.0400000000,-0.0900000000,47.2228600000,8.8189443000,0.5400000000,-0.0604709637,-0.0364259714,0.1697321246,-12.1750000000,-3.7495000000,1.3125000000,-2.8973212457,0.4859218292,-0.4848098798
83158684.0000000000,0.7500000000,-1.2505000000,0.1875000000,-2.1250000000,0.4375000000,-0.6250000000,-1.2700000000,1.3400000000,-0.5700000000,47.2228600000,8.8189443000,0.5200000000,-0.0766613099,-0.0180098099,-0.0000042456,-11.2375000000,-4.1870000000,0.4375000000,0.0000424565,0.4859218292,-0.4848098798
83166687.0000000000,0.7500000000,-1.2505000000,0.1875000000,-2.5000000000,-0.0625000000,-0.7500000000,-1.6400000000,-1.6800000000,0.3500000000,47.2228600000,8.8189443000,0.5400000000,-0.0887465465,-0.0310943482,0.2534865276,-11.8000000000,-3.6870000000,0.5625000000,-3.7348652758,0.4859218292,-0.4848098798
83174968.0000000000,0.7500000000,-1.2505000000,0.1875000000,-2.5000000000,-0.0625000000,-0.7500000000,-1.6400000000,-1.6800000000,0.3500000000,47.2228600000,8.8189443000,0.5200000000,-0.1011573650,-0.0445088144,-0.0096702872,-11.8000000000,-3.6870000000,0.5625000000,0.0967028717,0.4859218292,-0.4848098798
83186170.0000000000,0.8125000000,-1.2505000000,0.1875000000,-5.1250000000,-0.7500000000,0.0625000000,2.5000000000,1.5100000000,-0.4900000000,47.2228600000,8.8189443000,0.5200000000,-0.0722223307,-0.0272535346,-0.0121552668,-15.8250000000,-2.9995000000,-0.2500000000,0.1215526677,0.4859218292,-0.4848098798
83195853.0000000000,0.8750000000,-1.2505000000,0.2500000000,-6.3750000000,-0.2500000000,0.9375000000,-1.7000000000,1.2400000000,-0.5600000000,47.2228600000,8.8189443000,0.5200000000,-0.0876250039,-0.0150385486,-0.0145336824,-17.7875000000,-3.4995000000,-1.1875000000,0.7453368238,0.4859218292,-0.4848098798
83204543.0000000000,0.9375000000,-1.2505000000,0.2500000000,-6.0625000000,-0.5000000000,0.7500000000,-1.7000000000,1.2400000000,-0.5600000000,47.2228600000,8.8189443000,0.5400000000,-0.1012200284,-0.0041704212,0.2138439027,-17.4062500000,-3.2495000000,-1.0000000000,-2.7384390270,0.4859218292,-0.4848098798
83218502.0000000000,1.0000000000,-1.2505000000,0.2500000000,-3.4375000000,-0.4375000000,-0.0625000000,2.0500000000,1.4600000000,-0.2700000000,47.2228600000,8.8189443000,0.5400000000,-0.0716306702,0.0161277742,0.1909217890,-13.5562500000,-3.3120000000,-0.1875000000,-2.5092178899,0.4859218292,-0.4848098798
83230390.0000000000,1.0625000000,-1.2505000000,0.2500000000,-3.0000000000,-0.4375000000,-0.1875000000,-2.4200000000,-0.5400000000,-0.0400000000,47.2228600000,8.8189443000,0.5300000000,-0.0991849666,0.0096794326,0.0888624052,-12.9875000000,-3.3120000000,-0.0625000000,-0.8886240525,0.4859218292,-0.4848098798
83238393.0000000000,1.0625000000,-1.2505000000,0.2500000000,-3.0000000000,-0.4375000000,-0.1875000000,-2.4300000000,1.3500000000,-0.4300000000,47.2228600000,8.8189443000,0.5300000000,-0.1173041129,0.0203246010,0.0779421222,-12.9875000000,-3.3120000000,-0.0625000000,-0.7794212224,0.4859218292,-0.4848098798
83246397.0000000000,0.8125000000,-1.1880000000,0.2500000000,-3.6250000000,-0.8750000000,-1.0625000000,-1.1400000000,-1.2300000000,0.0100000000,47.2228600000,8.8189443000,0.5100000000,-0.1250225473,0.0104208431,-0.1785918651,-13.5750000000,-2.9370000000,0.8125000000,2.9859186509,0.4859218292,-0.4848098798
83258726.0000000000,0.8750000000,-1.1880000000,0.2500000000,-3.9375000000,0.3750000000,-0.1875000000,2.8100000000,0.8900000000,-0.2000000000,47.2228600000,8.8189443000,0.5100000000,-0.0892557945,0.0212505097,-0.1613141142,-14.1312500000,-4.1870000000,-0.0625000000,2.8131411422,0.4859218292,-0.4848098798
83266731.0000000000,0.8750000000,-1.1880000000,0.2500000000,-3.9375000000,0.3750000000,-0.1875000000,-4.0300000000,0.5600000000,-0.4800000000,47.2228600000,8.8189443000,0.5600000000,-0.1201589285,0.0255219413,0.4770321404,-14.1312500000,-4.1870000000,-0.0625000000,-5.9703214039,0.4859218292,-0.4848098798
83279013.0000000000,0.8750000000,-1.1880000000,0.2500000000,-3.1250000000,0.3125000000,1.0000000000,0.9300000000,1.6700000000,-0.3900000000,47.2228600000,8.8189443000,0.5300000000,-0.1074316525,0.0456430758,0.1823895927,-12.9125000000,-4.1245000000,-1.2500000000,-1.2238959271,0.4859218292,-0.4848098798
83287017.0000000000,0.9375000000,-1.1880000000,0.2500000000,-3.1250000000,0.3125000000,1.0000000000,-3.4000000000,-0.8700000000,-0.0600000000,47.2228600000,8.8189443000,0.5400000000,-0.1331569611,0.0383387588,0.2897192000,-13.0000000000,-4.1245000000,-1.2500000000,-2.8971920003,0.4859218292,-0.4848098798
83299236.0000000000,1.0000000000,-1.1880000000,0.2500000000,-6.5625000000,-0.3750000000,-0.2500000000,2.8900000000,-0.3700000000,0.2600000000,47.2228600000,8.8189443000,0.5100000000,-0.0966490776,0.0335497130,0.0197104247,-18.2437500000,-3.4370000000,0.0000000000,1.6028957528,0.4859218292,-0.4848098798
83309943.0000000000,1.1250000000,-1.1880000000,0.2500000000,-6.6875000000,0.2500000000,-0.4375000000,-2.4700000000,1.2400000000,-0.6500000000,47.2228600000,8.8189443000,0.5400000000,-0.1216746752,0.0464196086,0.2930886347,-18.6062500000,-4.0620000000,0.1875000000,-2.9308863469,0.4859218292,-0.4848098798
83317947.0000000000,1.1250000000,-1.1880000000,0.2500000000,-5.8125000000,0.5625000000,1.1250000000,2.2400000000,1.6900000000,-0.6000000000,47.2228600000,8.8189443000,0.5500000000,-0.1025664192,0.0593928639,0.3854583938,-17.2937500000,-4.3745000000,-1.3750000000,-4.4545839382,0.4859218292,-0.4848098798
83329579.0000000000,1.1875000000,-1.1880000000,0.3125000000,-4.7500000000,-0.3125000000,2.9375000000,-3.8100000000,-0.7100000000,-0.4100000000,47.2228600000,8.8189443000,0.5300000000,-0.1452093651,0.0506895934,0.1722260640,-15.7875000000,-3.4995000000,-3.2500000000,-0.5222606401,0.4859218292,-0.4848098798
83337582.0000000000,1.1875000000,-1.1880000000,0.3125000000,-4.7500000000,-0.3125000000,2.9375000000,-3.8100000000,-0.7100000000,-0.4100000000,47.2228600000,8.8189443000,0.5200000000,-0.1738019660,0.0446033420,0.0281603266,-15.7875000000,-3.4995000000,-3.2500000000,1.5183967344,0.4859218292,-0.4848098798
83345587.0000000000,1.2500000000,-1.1880000000,0.3125000000,-6.8750000000,-0.5625000000,2.2500000000,-3.7300000000,-0.2200000000,-0.2200000000,47.2228600000,8.8189443000,0.5400000000,-0.2014821532,0.0424597843,0.2746665357,-19.0625000000,-3.2495000000,-2.5625000000,-2.1466653570,0.4859218292,-0.4848098798
83359138.0000000000,1.3125000000,-1.1880000000,0.3125000000,-8.5000000000,-1.0000000000,-0.5000000000,-2.4100000000,0.1800000000,-0.2400000000,47.2228600000,8.8189443000,0.5400000000,-0.2315585253,0.0445277845,0.2460729810,-21.5875000000,-2.8120000000,0.1875000000,-1.8607298097,0.4859218292,-0.4848098798
83371125.0000000000,1.5000000000,-1.1880000000,0.3125000000,-8.8750000000,-1.1250000000,-1.3750000000,2.9100000000,-1.2400000000,0.6300000000,47.2228600000,8.8189443000,0.5500000000,-0.1944971702,0.0294360948,0.3132783740,-22.4125000000,-2.6870000000,1.0625000000,-3.1327837397,0.4859218292,-0.4848098798
83379410.0000000000,1.5000000000,-1.1880000000,0.3125000000,-9.0625000000,-0.4375000000,-1.7500000000,-1.7500000000,1.1800000000,-0.2500000000,47.2228600000,8.8189443000,0.5300000000,-0.2067591425,0.0388678433,0.0397868703,-22.6937500000,-3.3745000000,1.4375000000,1.4021312973,0.4859218292,-0.4848098798
83387412.0000000000,1.6250000000,-1.1880000000,0.3125000000,-9.0625000000,-0.4375000000,-1.7500000000,-1.7500000000,1.1800000000,-0.2500000000,47.2228600000,8.8189443000,0.5400000000,-0.2184132126,0.0478730488,0.1600394767,-22.8687500000,-3.3745000000,1.4375000000,-0.4003947674,0.4859218292,-0.4848098798
83398662.0000000000,1.6875000000,-1.1880000000,0.3125000000,-5.0000000000,0.7500000000,-0.1875000000,-2.9300000000,-0.1900000000,-0.2100000000,47.2228600000,8.8189443000,0.5400000000,-0.2486625942,0.0453427908,0.1434037291,-16.8625000000,-4.5620000000,-0.1250000000,-0.2340372906,0.4859218292,-0.4848098798
83406665.0000000000,1.7500000000,-1.1880000000,0.3125000000,-5.0000000000,0.7500000000,-0.1875000000,1.0900000000,-0.9600000000,0.1800000000,47.2228600000,8.8189443000,0.5400000000,-0.2373981098,0.0373292649,0.1314229607,-16.9500000000,-4.5620000000,-0.1250000000,-0.1142296068,0.4859218292,-0.4848098798
83420158.0000000000,1.8750000000,-1.1255000000,0.3125000000,-5.9375000000,1.5625000000,1.3750000000,-0.1000000000,1.7900000000,-0.7000000000,47.2228600000,8.8189443000,0.5400000000,-0.2361208263,0.0609443944,0.1115724847,-18.5312500000,-5.4370000000,-1.6875000000,0.0842751527,0.4859218292,-0.4848098798
83431844.0000000000,1.9375000000,-1.1255000000,0.3125000000,-6.2500000000,1.8125000000,1.4375000000,-3.3700000000,-0.9500000000,-0.0400000000,47.2228600000,8.8189443000,0.5300000000,-0.2725405322,0.0494113684,0.0159744286,-19.0875000000,-5.6870000000,-1.7500000000,2.2402557140,0.4859218292,-0.4848098798
83442862.0000000000,2.0000000000,-1.1255000000,0.3750000000,-6.3125000000,2.1250000000,0.6875000000,-3.6200000000,0.4700000000,-0.4700000000,47.2228600000,8.8189443000,0.5400000000,-0.3091061853,0.0541071955,0.1019405765,-19.2687500000,-5.9995000000,-1.0625000000,0.7805942353,0.4859218292,-0.4848098798
83453971.0000000000,2.0625000000,-1.0630000000,0.3125000000,-9.1250000000,1.9375000000,-0.8750000000,-0.7600000000,-1.2300000000,0.3100000000,47.2228600000,8.8189443000,0.5500000000,-0.3141766725,0.0401024821,0.1863387526,-23.5750000000,-5.8745000000,0.5625000000,-0.6633875263,0.4859218292,-0.4848098798
83463665.0000000000,2.1875000000,-1.0630000000,0.3125000000,-10.9375000000,1.4375000000,-2.6875000000,0.0300000000,1.3600000000,-0.2700000000,47.2228600000,8.8189443000,0.5500000000,-0.3105752066,0.0528091219,0.1666369863,-26.4687500000,-5.3745000000,2.3750000000,-0.4663698633,0.4859218292,-0.4848098798
83473836.0000000000,2.2500000000,-1.0630000000,0.3125000000,-11.3750000000,1.1250000000,-3.3750000000,-3.0000000000,0.4800000000,-0.1200000000,47.2228600000,8.8189443000,0.5400000000,-0.3374970842,0.0571726917,0.0519071860,-27.2125000000,-5.0620000000,3.0625000000,1.2809281405,0.4859218292,-0.4848098798
83481841.0000000000,2.3750000000,-1.0630000000,0.2500000000,-11.0625000000,0.6875000000,-3.3125000000,0.2500000000,1.0000000000,0.0000000000,47.2228600000,8.8189443000,0.5500000000,-0.3319990193,0.0645718795,0.1727017754,-26.9187500000,-4.6245000000,3.0625000000,0.0729822465,0.4859218292,-0.4848098798
83491495.0000000000,2.5000000000,-1.0630000000,0.2500000000,-13.6250000000,0.5000000000,-2.6875000000,-3.5200000000,0.3000000000,-0.0900000000,47.2228600000,8.8189443000,0.5400000000,-0.3621502097,0.0668488320,0.0523480545,-30.9375000000,-4.4370000000,2.4375000000,1.8765194545,0.4859218292,-0.4848098798
83499498.0000000000,2.5000000000,-1.0630000000,0.2500000000,-13.8750000000,0.8750000000,-1.6250000000,-1.4400000000,-1.1100000000,0.3600000000,47.2228600000,8.8189443000,0.5400000000,-0.3697959633,0.0574318002,0.0507693396,-31.3125000000,-4.8120000000,1.3750000000,1.8923066039,0.4859218292,-0.4848098798
83511695.0000000000,2.7500000000,-1.0630000000,0.2500000000,-12.7500000000,1.1875000000,-0.3125000000,0.4100000000,0.8400000000,0.0000000000,47.2228600000,8.8189443000,0.5400000000,-0.3609310983,0.0670705426,0.0473126551,-29.9750000000,-5.1245000000,0.0625000000,1.9268734487,0.4859218292,-0.4848098798
83522807.0000000000,2.8750000000,-1.0005000000,0.2500000000,-13.4375000000,1.3125000000,1.3750000000,-3.7900000000,0.8200000000,-0.2600000000,47.2228600000,8.8189443000,0.5600000000,-0.3988182068,0.0754843638,0.2214429009,-31.1812500000,-5.3120000000,-1.6250000000,-1.0144290085,0.4859218292,-0.4848098798
83530811.0000000000,2.8750000000,-1.0005000000,0.2500000000,-12.6875000000,1.3125000000,1.7500000000,-2.2100000000,-0.7500000000,0.2100000000,47.2228600000,8.8189443000,0.5500000000,-0.4122001374,0.0688325092,0.0769370869,-30.0562500000,-5.3120000000,-2.0000000000,1.6306291311,0.4859218292,-0.4848098798
83538813.0000000000,3.0000000000,-1.0005000000,0.2500000000,-12.6875000000,1.3125000000,1.7500000000,-2.2100000000,-0.7500000000,0.2100000000,47.2228600000,8.8189443000,0.5400000000,-0.4254439084,0.0622486466,-0.0531500159,-30.2312500000,-5.3120000000,-2.0000000000,3.5315001593,0.4859218292,-0.4848098798
83549561.0000000000,3.0625000000,-1.0005000000,0.3125000000,-15.8125000000,1.0625000000,0.8750000000,-0.0600000000,1.4700000000,-0.0200000000,47.2228600000,8.8189443000,0.5300000000,-0.4216374352,0.0773294395,-0.1396412797,-35.0062500000,-5.0620000000,-1.1875000000,4.9964127970,0.4859218292,-0.4848098798
83557564.0000000000,3.2500000000,-1.0005000000,0.3125000000,-15.8125000000,1.0625000000,0.8750000000,-3.7800000000,0.8400000000,-0.1600000000,47.2228600000,8.8189443000,0.5500000000,-0.4472280663,0.0832573932,0.1241398199,-35.2687500000,-5.0620000000,-1.1875000000,1.1586018007,0.4859218292,-0.4848098798
83570950.0000000000,3.5625000000,-1.0005000000,0.3125000000,-16.6250000000,0.3750000000,-1.4375000000,-0.9800000000,-0.5100000000,0.2900000000,47.2228600000,8.8189443000,0.5600000000,-0.4555056695,0.0757430902,0.1917026958,-36.9250000000,-4.3745000000,1.1250000000,0.4829730424,0.4859218292,-0.4848098798
83582494.0000000000,3.7500000000,-1.0005000000,0.3125000000,-18.7500000000,0.2500000000,-1.0000000000,0.3400000000,-0.2300000000,0.4000000000,47.2228600000,8.8189443000,0.5700000000,-0.4468603312,0.0724233762,0.2648468578,-40.3750000000,-4.2495000000,0.6875000000,-0.8484685777,0.4859218292,-0.4848098798
83590498.0000000000,3.7500000000,-1.0005000000,0.3125000000,-18.8750000000,1.0625000000,-0.9375000000,-2.6700000000,0.1800000000,0.0400000000,47.2228600000,8.8189443000,0.5600000000,-0.4634068622,0.0731714142,0.1147760361,-40.5625000000,-5.0620000000,0.6250000000,1.2522396388,0.4859218292,-0.4848098798
83598501.0000000000,3.9375000000,-1.0005000000,0.3125000000,-18.8750000000,1.0625000000,-0.9375000000,-3.3100000000,1.0200000000,-0.3100000000,47.2228600000,8.8189443000,0.5600000000,-0.4848560031,0.0805670827,0.1021287140,-40.8250000000,-5.0620000000,0.6250000000,1.3787128597,0.4859218292,-0.4848098798
83609596.0000000000,4.1250000000,-0.9380000000,0.2500000000,-24.5000000000,2.1875000000,-0.5000000000,-2.6000000000,-0.3300000000,0.0300000000,47.2228600000,8.8189443000,0.5500000000,-0.5083693586,0.0762003828,0.0035585779,-49.5250000000,-6.2495000000,0.2500000000,3.5644142208,0.4859218292,-0.4848098798
83617599.0000000000,4.3750000000,-0.9380000000,0.3125000000,-24.5000000000,2.1875000000,-0.5000000000,0.0800000000,-0.5100000000,0.1500000000,47.2228600000,8.8189443000,0.5500000000,-0.5025100062,0.0714436175,0.0053462437,-49.8750000000,-6.2495000000,0.1875000000,3.5465375635,0.4859218292,-0.4848098798
83629918.0000000000,4.6250000000,-0.9380000000,0.3125000000,-26.0625000000,2.6250000000,0.5000000000,-0.6600000000,0.9000000000,-0.2300000000,47.2228600000,8.8189443000,0.5500000000,-0.5053158358,0.0817761461,0.0038980422,-52.5687500000,-6.6870000000,-0.8125000000,3.5610195775,0.4859218292,-0.4848098798
83637922.0000000000,4.8750000000,-0.8755000000,0.3125000000,-28.4375000000,2.3125000000,1.1250000000,-0.6600000000,0.9000000000,-0.2300000000,47.2228600000,8.8189443000,0.5700000000,-0.5053506521,0.0881359076,0.2527897239,-56.4812500000,-6.4370000000,-1.4375000000,0.4721027615,0.4859218292,-0.4848098798
83648936.0000000000,5.1875000000,-0.8755000000,0.3125000000,-29.3125000000,2.1875000000,1.0625000000,-3.5300000000,0.3500000000,-0.1800000000,47.2228600000,8.8189443000,0.5900000000,-0.5385925923,0.0911341419,0.4087766542,-58.2312500000,-6.3120000000,-1.3750000000,-2.2877665423,0.4859218292,-0.4848098798
83657024.0000000000,5.5000000000,-0.8755000000,0.3750000000,-30.5000000000,1.8750000000,-0.4375000000,-3.5300000000,0.3500000000,-0.1800000000,47.2228600000,8.8189443000,0.5600000000,-0.5613284726,0.0930717337,-0.0032567386,-60.4500000000,-5.9995000000,0.0625000000,3.6325673858,0.4859218292,-0.4848098798
83668495.0000000000,5.8125000000,-0.8130000000,0.3125000000,-34.5000000000,2.0625000000,-2.0000000000,0.0400000000,-0.1500000000,0.5200000000,47.2228600000,8.8189443000,0.5700000000,-0.5550576586,0.0905034394,0.0911375287,-66.8875000000,-6.2495000000,1.6875000000,2.0886247131,0.4859218292,-0.4848098798
83677162.0000000000,6.1875000000,-0.8130000000,0.3125000000,-36.3125000000,2.6875000000,-3.3750000000,0.0400000000,-0.1500000000,0.5200000000,47.2228600000,8.8189443000,0.5800000000,-0.5490102809,0.0883611214,0.2026114338,-70.1312500000,-6.8745000000,3.0625000000,0.9738856622,0.4859218292,-0.4848098798
83687155.0000000000,6.5000000000,-0.7505000000,0.3125000000,-37.5000000000,2.9375000000,-3.6250000000,-1.6800000000,0.6900000000,0.0900000000,47.2228600000,8.8189443000,0.5700000000,-0.5599634498,0.0943611083,0.0844171445,-72.3500000000,-7.1870000000,3.3125000000,2.7558285551,0.4859218292,-0.4848098798
83695160.0000000000,6.8750000000,-0.7505000000,0.3125000000,-38.0625000000,1.8125000000,-0.9375000000,-2.9400000000,0.5700000000,-0.2800000000,47.2228600000,8.8189443000,0.5700000000,-0.5775213117,0.0979806834,0.0750215542,-73.7187500000,-6.0620000000,0.6250000000,2.8497844576,0.4859218292,-0.4848098798
83709089.0000000000,7.2500000000,-0.7505000000,0.3125000000,-40.1250000000,2.7500000000,1.4375000000,-1.1900000000,1.4900000000,-0.3300000000,47.2228600000,8.8189443000,0.5800000000,-0.5879090177,0.1176275248,0.1370254770,-77.3375000000,-6.9995000000,-1.7500000000,2.2297452303,0.4859218292,-0.4848098798
83721713.0000000000,8.1250000000,-0.6255000000,0.3750000000,-43.5625000000,3.3750000000,0.3125000000,-4.8800000000,0.2000000000,-0.4100000000,47.2228600000,8.8189443000,0.5600000000,-0.6427952864,0.1190232886,-0.0380867449,-83.7187500000,-7.7495000000,-0.6875000000,5.1808674494,0.4859218292,-0.4848098798
83733086.0000000000,8.5625000000,-0.6255000000,0.3750000000,-45.8750000000,2.8125000000,-1.4375000000,-1.6800000000,-0.8100000000,0.0400000000,47.2228600000,8.8189443000,0.5800000000,-0.6550813662,0.1087783508,0.1434972423,-87.8000000000,-7.1870000000,1.0625000000,2.1650275772,0.4859218292,-0.4848098798
83744208.0000000000,9.0000000000,-0.6255000000,0.3750000000,-47.6250000000,2.5625000000,-3.8750000000,-0.1500000000,1.6900000000,-0.3400000000,47.2228600000,8.8189443000,0.5800000000,-0.6499850766,0.1263626480,0.1272216325,-91.0375000000,-6.9370000000,3.5000000000,2.3277836747,0.4859218292,-0.4848098798
83756649.0000000000,9.5000000000,-0.5630000000,0.3125000000,-51.3125000000,2.9375000000,-5.6250000000,-4.0300000000,-0.5600000000,0.1500000000,47.2228600000,8.8189443000,0.5900000000,-0.6929006165,0.1182731673,0.1982110574,-97.2687500000,-7.3745000000,5.3125000000,1.6178894256,0.4859218292,-0.4848098798
83770852.0000000000,10.0000000000,-0.5630000000,0.2500000000,-50.5000000000,3.9375000000,-4.8125000000,-1.2700000000,0.2900000000,0.2900000000,47.2228600000,8.8189443000,0.5800000000,-0.7035773509,0.1212496706,0.1135760009,-96.7500000000,-8.3745000000,4.5625000000,3.0642399914,0.4859218292,-0.4848098798
83782122.0000000000,11.0000000000,-0.4380000000,0.2500000000,-53.6250000000,4.5000000000,-3.6875000000,-4.8400000000,0.3800000000,-0.0300000000,47.2228600000,8.8189443000,0.6000000000,-0.7503431937,0.1243416602,0.2808735068,-102.8375000000,-9.0620000000,3.4375000000,0.1912649316,0.4859218292,-0.4848098798
83790125.0000000000,11.0000000000,-0.4380000000,0.2500000000,-53.6250000000,4.5000000000,-3.6875000000,-1.2000000000,0.1500000000,-0.5000000000,47.2228600000,8.8189443000,0.5800000000,-0.7522055046,0.1243326423,0.0003416395,-102.8375000000,-9.0620000000,3.4375000000,4.7965836047,0.4859218292,-0.4848098798
83798127.0000000000,11.5625000000,-0.4380000000,0.2500000000,-55.7500000000,4.0000000000,-1.0625000000,-1.0000000000,-0.9700000000,0.0200000000,47.2228600000,8.8189443000,0.6000000000,-0.7524636261,0.1154509428,0.2514520129,-106.8125000000,-8.5620000000,0.8125000000,1.0854798712,0.4859218292,-0.4848098798
83811864.0000000000,12.6875000000,-0.3130000000,0.3750000000,-60.0000000000,4.8750000000,6.5000000000,-1.7700000000,-0.9200000000,0.0100000000,47.2228600000,8.8189443000,0.6000000000,-0.7687669016,0.1018636516,0.2282552677,-114.7625000000,-9.5620000000,-6.8750000000,1.3174473233,0.4859218292,-0.4848098798
83822753.0000000000,13.3125000000,-0.2505000000,0.4375000000,-62.5000000000,5.4375000000,8.9375000000,-2.3200000000,0.1500000000,-0.3700000000,47.2228600000,8.8189443000,0.5900000000,-0.7858961238,0.1025245562,0.1114144011,-119.3875000000,-10.1870000000,-9.3750000000,3.6858559893,0.4859218292,-0.4848098798
83830758.0000000000,13.3125000000,-0.2505000000,0.4375000000,-62.5000000000,5.4375000000,8.9375000000,-2.3200000000,0.1500000000,-0.3700000000,47.2228600000,8.8189443000,0.5900000000,-0.7962811900,0.1027340179,0.0986706802,-119.3875000000,-10.1870000000,-9.3750000000,3.8132931983,0.4859218292,-0.4848098798
83838762.0000000000,13.8750000000,-0.1255000000,0.5625000000,-64.3125000000,5.0000000000,10.5000000000,-4.1100000000,-0.2600000000,-0.4600000000,47.2228600000,8.8189443000,0.5900000000,-0.8207440148,0.0996924071,0.0865532075,-122.8937500000,-9.8745000000,-11.0625000000,3.9344679249,0.4859218292,-0.4848098798
83846991.0000000000,14.5000000000,-0.0630000000,0.6875000000,-66.0000000000,4.0625000000,9.7500000000,-2.2800000000,-0.0100000000,-0.4500000000,47.2228600000,8.8189443000,0.5900000000,-0.8309652473,0.0986612668,0.0756582821,-126.3000000000,-8.9995000000,-10.4375000000,4.6434171788,0.4859218292,-0.4848098798
83856920.0000000000,15.1875000000,-0.0005000000,0.8750000000,-69.0625000000,2.4375000000,12.0625000000,-1.1200000000,0.7400000000,-0.6000000000,47.2228600000,8.8189443000,0.6100000000,-0.8334889182,0.1050056519,0.2654799164,-131.8562500000,-7.4370000000,-12.9375000000,1.5452008364,0.4859218292,-0.4848098798
83866963.0000000000,15.8125000000,-0.0005000000,1.0000000000,-68.1875000000,0.3750000000,14.4375000000,-2.7600000000,2.1200000000,-1.4400000000,47.2228600000,8.8189443000,0.6000000000,-0.8524175503,0.1250915107,0.1276784678,-131.4187500000,-5.3745000000,-15.4375000000,4.1232153224,0.4859218292,-0.4848098798
83876950.0000000000,16.5000000000,0.0620000000,1.1875000000,-69.1250000000,-2.9375000000,15.5000000000,-3.9400000000,0.5700000000,-2.2400000000,47.2228600000,8.8189443000,0.6000000000,-0.8826716873,0.1295336050,0.0961035021,-133.7875000000,-2.1245000000,-16.6875000000,4.4389649794,0.4859218292,-0.4848098798
83884953.0000000000,17.1250000000,0.0620000000,1.4375000000,-70.6250000000,-6.6250000000,18.3125000000,-2.4500000000,-0.3700000000,-1.6400000000,47.2228600000,8.8189443000,0.6200000000,-0.8931144258,0.1253527233,0.3256501275,-136.9125000000,1.5630000000,-19.7500000000,0.9434987248,0.4859218292,-0.4848098798
83892957.0000000000,17.8125000000,-0.0005000000,1.6250000000,-70.5625000000,-10.0000000000,19.1875000000,-1.4100000000,-0.8000000000,-1.1900000000,47.2228600000,8.8189443000,0.6000000000,-0.8952142263,0.1178059870,0.0357010197,-137.7812500000,5.0005000000,-20.8125000000,5.6429898034,0.4859218292,-0.4848098798
